[
  {
    "city": "Zürich",
    "lat": "47.3786",
    "lng": "8.5400",
    "country": "Switzerland",
    "iso2": "CH",
    "admin_name": "Zürich",
    "capital": "admin",
    "population": "434008",
    "population_proper": "434008"
  },
  {
    "city": "Geneva",
    "lat": "46.2000",
    "lng": "6.1500",
    "country": "Switzerland",
    "iso2": "CH",
    "admin_name": "Genève",
    "capital": "admin",
    "population": "201818",
    "population_proper": "201818"
  },
  {
    "city": "Basel",
    "lat": "47.5606",
    "lng": "7.5906",
    "country": "Switzerland",
    "iso2": "CH",
    "admin_name": "Basel-Stadt",
    "capital": "admin",
    "population": "177595",
    "population_proper": "177595"
  },
  {
    "city": "Lausanne",
    "lat": "46.5333",
    "lng": "6.6333",
    "country": "Switzerland",
    "iso2": "CH",
    "admin_name": "Vaud",
    "capital": "admin",
    "population": "138905",
    "population_proper": "138905"
  },
  {
    "city": "Bern",
    "lat": "46.9480",
    "lng": "7.4474",
    "country": "Switzerland",
    "iso2": "CH",
    "admin_name": "Bern",
    "capital": "primary",
    "population": "133798",
    "population_proper": "133798"
  },
  {
    "city": "Winterthur",
    "lat": "47.4992",
    "lng": "8.7267",
    "country": "Switzerland",
    "iso2": "CH",
    "admin_name": "Zürich",
    "capital": "minor",
    "population": "109775",
    "population_proper": "109775"
  },
  {
    "city": "Lucerne",
    "lat": "47.0523",
    "lng": "8.3059",
    "country": "Switzerland",
    "iso2": "CH",
    "admin_name": "Luzern",
    "capital": "admin",
    "population": "81691",
    "population_proper": "81691"
  },
  {
    "city": "Sankt Gallen",
    "lat": "47.4233",
    "lng": "9.3772",
    "country": "Switzerland",
    "iso2": "CH",
    "admin_name": "Sankt Gallen",
    "capital": "admin",
    "population": "75833",
    "population_proper": "75833"
  },
  {
    "city": "Lugano",
    "lat": "46.0103",
    "lng": "8.9625",
    "country": "Switzerland",
    "iso2": "CH",
    "admin_name": "Ticino",
    "capital": "",
    "population": "63185",
    "population_proper": "63185"
  },
  {
    "city": "Biel/Bienne",
    "lat": "47.1372",
    "lng": "7.2472",
    "country": "Switzerland",
    "iso2": "CH",
    "admin_name": "Bern",
    "capital": "",
    "population": "54456",
    "population_proper": "54456"
  },
  {
    "city": "Thun",
    "lat": "46.7590",
    "lng": "7.6300",
    "country": "Switzerland",
    "iso2": "CH",
    "admin_name": "Bern",
    "capital": "minor",
    "population": "43743",
    "population_proper": "43743"
  },
  {
    "city": "Bellinzona",
    "lat": "46.1956",
    "lng": "9.0238",
    "country": "Switzerland",
    "iso2": "CH",
    "admin_name": "Ticino",
    "capital": "",
    "population": "43220",
    "population_proper": "43220"
  },
  {
    "city": "Köniz",
    "lat": "46.9250",
    "lng": "7.4153",
    "country": "Switzerland",
    "iso2": "CH",
    "admin_name": "Bern",
    "capital": "",
    "population": "41507",
    "population_proper": "41507"
  },
  {
    "city": "La Chaux-de-Fonds",
    "lat": "47.0996",
    "lng": "6.8296",
    "country": "Switzerland",
    "iso2": "CH",
    "admin_name": "Neuchâtel",
    "capital": "minor",
    "population": "38965",
    "population_proper": "38965"
  },
  {
    "city": "Fribourg",
    "lat": "46.8000",
    "lng": "7.1500",
    "country": "Switzerland",
    "iso2": "CH",
    "admin_name": "Fribourg",
    "capital": "admin",
    "population": "38365",
    "population_proper": "38365"
  },
  {
    "city": "Schaffhausen",
    "lat": "47.6965",
    "lng": "8.6339",
    "country": "Switzerland",
    "iso2": "CH",
    "admin_name": "Schaffhausen",
    "capital": "admin",
    "population": "36587",
    "population_proper": "36587"
  },
  {
    "city": "Vernier",
    "lat": "46.2000",
    "lng": "6.1000",
    "country": "Switzerland",
    "iso2": "CH",
    "admin_name": "Genève",
    "capital": "",
    "population": "35132",
    "population_proper": "35132"
  },
  {
    "city": "Chur",
    "lat": "46.8521",
    "lng": "9.5297",
    "country": "Switzerland",
    "iso2": "CH",
    "admin_name": "Graubünden",
    "capital": "admin",
    "population": "35038",
    "population_proper": "35038"
  },
  {
    "city": "Sion",
    "lat": "46.2304",
    "lng": "7.3661",
    "country": "Switzerland",
    "iso2": "CH",
    "admin_name": "Valais",
    "capital": "",
    "population": "34708",
    "population_proper": "34708"
  },
  {
    "city": "Uster",
    "lat": "47.3492",
    "lng": "8.7192",
    "country": "Switzerland",
    "iso2": "CH",
    "admin_name": "Zürich",
    "capital": "minor",
    "population": "34442",
    "population_proper": "34442"
  },
  {
    "city": "Neuchâtel",
    "lat": "46.9903",
    "lng": "6.9306",
    "country": "Switzerland",
    "iso2": "CH",
    "admin_name": "Neuchâtel",
    "capital": "admin",
    "population": "33475",
    "population_proper": "33475"
  },
  {
    "city": "Landecy",
    "lat": "46.1897",
    "lng": "6.1158",
    "country": "Switzerland",
    "iso2": "CH",
    "admin_name": "Genève",
    "capital": "",
    "population": "31942",
    "population_proper": "31942"
  },
  {
    "city": "Zug",
    "lat": "47.1681",
    "lng": "8.5169",
    "country": "Switzerland",
    "iso2": "CH",
    "admin_name": "Zug",
    "capital": "admin",
    "population": "30542",
    "population_proper": "30542"
  },
  {
    "city": "Yverdon-les-Bains",
    "lat": "46.7785",
    "lng": "6.6408",
    "country": "Switzerland",
    "iso2": "CH",
    "admin_name": "Vaud",
    "capital": "minor",
    "population": "30157",
    "population_proper": "30157"
  },
  {
    "city": "Emmen",
    "lat": "47.0772",
    "lng": "8.3000",
    "country": "Switzerland",
    "iso2": "CH",
    "admin_name": "Luzern",
    "capital": "",
    "population": "29292",
    "population_proper": "29292"
  },
  {
    "city": "Dübendorf",
    "lat": "47.3981",
    "lng": "8.6194",
    "country": "Switzerland",
    "iso2": "CH",
    "admin_name": "Zürich",
    "capital": "",
    "population": "28002",
    "population_proper": "28002"
  },
  {
    "city": "Kriens",
    "lat": "47.0344",
    "lng": "8.2800",
    "country": "Switzerland",
    "iso2": "CH",
    "admin_name": "Luzern",
    "capital": "",
    "population": "26997",
    "population_proper": "26997"
  },
  {
    "city": "Rapperswil-Jona",
    "lat": "47.2286",
    "lng": "8.8317",
    "country": "Switzerland",
    "iso2": "CH",
    "admin_name": "Sankt Gallen",
    "capital": "minor",
    "population": "26989",
    "population_proper": "26989"
  },
  {
    "city": "Dietikon",
    "lat": "47.4056",
    "lng": "8.4039",
    "country": "Switzerland",
    "iso2": "CH",
    "admin_name": "Zürich",
    "capital": "",
    "population": "26936",
    "population_proper": "26936"
  },
  {
    "city": "Montreux",
    "lat": "46.4333",
    "lng": "6.9167",
    "country": "Switzerland",
    "iso2": "CH",
    "admin_name": "Vaud",
    "capital": "",
    "population": "25984",
    "population_proper": "25984"
  },
  {
    "city": "Wetzikon",
    "lat": "47.3208",
    "lng": "8.7931",
    "country": "Switzerland",
    "iso2": "CH",
    "admin_name": "Zürich",
    "capital": "",
    "population": "24452",
    "population_proper": "24452"
  },
  {
    "city": "Baar",
    "lat": "47.1956",
    "lng": "8.5264",
    "country": "Switzerland",
    "iso2": "CH",
    "admin_name": "Zug",
    "capital": "",
    "population": "24322",
    "population_proper": "24322"
  },
  {
    "city": "Meyrin",
    "lat": "46.2322",
    "lng": "6.0791",
    "country": "Switzerland",
    "iso2": "CH",
    "admin_name": "Genève",
    "capital": "",
    "population": "24144",
    "population_proper": "24144"
  },
  {
    "city": "Wil",
    "lat": "47.4664",
    "lng": "9.0497",
    "country": "Switzerland",
    "iso2": "CH",
    "admin_name": "Sankt Gallen",
    "capital": "minor",
    "population": "23768",
    "population_proper": "23768"
  },
  {
    "city": "Bulle",
    "lat": "46.6167",
    "lng": "7.0500",
    "country": "Switzerland",
    "iso2": "CH",
    "admin_name": "Fribourg",
    "capital": "",
    "population": "22709",
    "population_proper": "22709"
  },
  {
    "city": "Horgen",
    "lat": "47.2608",
    "lng": "8.5975",
    "country": "Switzerland",
    "iso2": "CH",
    "admin_name": "Zürich",
    "capital": "",
    "population": "22662",
    "population_proper": "22662"
  },
  {
    "city": "Carouge",
    "lat": "46.1817",
    "lng": "6.1404",
    "country": "Switzerland",
    "iso2": "CH",
    "admin_name": "Genève",
    "capital": "",
    "population": "22336",
    "population_proper": "22336"
  },
  {
    "city": "Frauenfeld",
    "lat": "47.5580",
    "lng": "8.8964",
    "country": "Switzerland",
    "iso2": "CH",
    "admin_name": "Thurgau",
    "capital": "",
    "population": "21979",
    "population_proper": "21979"
  },
  {
    "city": "Kreuzlingen",
    "lat": "47.6458",
    "lng": "9.1783",
    "country": "Switzerland",
    "iso2": "CH",
    "admin_name": "Thurgau",
    "capital": "minor",
    "population": "21801",
    "population_proper": "21801"
  },
  {
    "city": "Wädenswil",
    "lat": "47.2303",
    "lng": "8.6722",
    "country": "Switzerland",
    "iso2": "CH",
    "admin_name": "Zürich",
    "capital": "",
    "population": "21716",
    "population_proper": "21716"
  },
  {
    "city": "Riehen",
    "lat": "47.5794",
    "lng": "7.6512",
    "country": "Switzerland",
    "iso2": "CH",
    "admin_name": "Basel-Stadt",
    "capital": "",
    "population": "21448",
    "population_proper": "21448"
  },
  {
    "city": "Aarau",
    "lat": "47.3923",
    "lng": "8.0446",
    "country": "Switzerland",
    "iso2": "CH",
    "admin_name": "Aargau",
    "capital": "admin",
    "population": "21268",
    "population_proper": "21268"
  },
  {
    "city": "Allschwil",
    "lat": "47.5508",
    "lng": "7.5358",
    "country": "Switzerland",
    "iso2": "CH",
    "admin_name": "Basel-Landschaft",
    "capital": "",
    "population": "21150",
    "population_proper": "21150"
  },
  {
    "city": "Renens",
    "lat": "46.5353",
    "lng": "6.5897",
    "country": "Switzerland",
    "iso2": "CH",
    "admin_name": "Vaud",
    "capital": "minor",
    "population": "20927",
    "population_proper": "20927"
  },
  {
    "city": "Wettingen",
    "lat": "47.4659",
    "lng": "8.3267",
    "country": "Switzerland",
    "iso2": "CH",
    "admin_name": "Aargau",
    "capital": "",
    "population": "20721",
    "population_proper": "20721"
  },
  {
    "city": "Nyon",
    "lat": "46.3820",
    "lng": "6.2389",
    "country": "Switzerland",
    "iso2": "CH",
    "admin_name": "Vaud",
    "capital": "",
    "population": "20272",
    "population_proper": "20272"
  },
  {
    "city": "Bülach",
    "lat": "47.5189",
    "lng": "8.5422",
    "country": "Switzerland",
    "iso2": "CH",
    "admin_name": "Zürich",
    "capital": "",
    "population": "20046",
    "population_proper": "20046"
  },
  {
    "city": "Vevey",
    "lat": "46.4667",
    "lng": "6.8500",
    "country": "Switzerland",
    "iso2": "CH",
    "admin_name": "Vaud",
    "capital": "",
    "population": "19891",
    "population_proper": "19891"
  },
  {
    "city": "Opfikon",
    "lat": "47.4331",
    "lng": "8.5719",
    "country": "Switzerland",
    "iso2": "CH",
    "admin_name": "Zürich",
    "capital": "",
    "population": "19864",
    "population_proper": "19864"
  },
  {
    "city": "Kloten",
    "lat": "47.4481",
    "lng": "8.5828",
    "country": "Switzerland",
    "iso2": "CH",
    "admin_name": "Zürich",
    "capital": "",
    "population": "19362",
    "population_proper": "19362"
  },
  {
    "city": "Reinach",
    "lat": "47.4936",
    "lng": "7.5908",
    "country": "Switzerland",
    "iso2": "CH",
    "admin_name": "Basel-Landschaft",
    "capital": "",
    "population": "19144",
    "population_proper": "19144"
  },
  {
    "city": "Baden",
    "lat": "47.4729",
    "lng": "8.3080",
    "country": "Switzerland",
    "iso2": "CH",
    "admin_name": "Aargau",
    "capital": "",
    "population": "19122",
    "population_proper": "19122"
  },
  {
    "city": "Onex",
    "lat": "46.1833",
    "lng": "6.1000",
    "country": "Switzerland",
    "iso2": "CH",
    "admin_name": "Genève",
    "capital": "",
    "population": "18977",
    "population_proper": "18977"
  },
  {
    "city": "Adliswil",
    "lat": "47.3122",
    "lng": "8.5256",
    "country": "Switzerland",
    "iso2": "CH",
    "admin_name": "Zürich",
    "capital": "",
    "population": "18731",
    "population_proper": "18731"
  },
  {
    "city": "Schlieren",
    "lat": "47.3989",
    "lng": "8.4497",
    "country": "Switzerland",
    "iso2": "CH",
    "admin_name": "Zürich",
    "capital": "",
    "population": "18666",
    "population_proper": "18666"
  },
  {
    "city": "Volketswil",
    "lat": "47.3906",
    "lng": "8.6953",
    "country": "Switzerland",
    "iso2": "CH",
    "admin_name": "Zürich",
    "capital": "",
    "population": "18615",
    "population_proper": "18615"
  },
  {
    "city": "Pully",
    "lat": "46.5167",
    "lng": "6.6667",
    "country": "Switzerland",
    "iso2": "CH",
    "admin_name": "Vaud",
    "capital": "",
    "population": "18313",
    "population_proper": "18313"
  },
  {
    "city": "Regensdorf",
    "lat": "47.4383",
    "lng": "8.4744",
    "country": "Switzerland",
    "iso2": "CH",
    "admin_name": "Zürich",
    "capital": "",
    "population": "18253",
    "population_proper": "18253"
  },
  {
    "city": "Gossau",
    "lat": "47.4164",
    "lng": "9.2500",
    "country": "Switzerland",
    "iso2": "CH",
    "admin_name": "Sankt Gallen",
    "capital": "",
    "population": "18171",
    "population_proper": "18171"
  },
  {
    "city": "Muttenz",
    "lat": "47.5228",
    "lng": "7.6452",
    "country": "Switzerland",
    "iso2": "CH",
    "admin_name": "Basel-Landschaft",
    "capital": "",
    "population": "17805",
    "population_proper": "17805"
  },
  {
    "city": "Thalwil",
    "lat": "47.2953",
    "lng": "8.5647",
    "country": "Switzerland",
    "iso2": "CH",
    "admin_name": "Zürich",
    "capital": "",
    "population": "17784",
    "population_proper": "17784"
  },
  {
    "city": "Monthey",
    "lat": "46.2500",
    "lng": "6.9500",
    "country": "Switzerland",
    "iso2": "CH",
    "admin_name": "Valais",
    "capital": "",
    "population": "17563",
    "population_proper": "17563"
  },
  {
    "city": "Ostermundigen",
    "lat": "46.9553",
    "lng": "7.4833",
    "country": "Switzerland",
    "iso2": "CH",
    "admin_name": "Bern",
    "capital": "",
    "population": "17546",
    "population_proper": "17546"
  },
  {
    "city": "Littau",
    "lat": "47.0494",
    "lng": "8.2639",
    "country": "Switzerland",
    "iso2": "CH",
    "admin_name": "Luzern",
    "capital": "",
    "population": "17224",
    "population_proper": "17224"
  },
  {
    "city": "Grenchen",
    "lat": "47.1931",
    "lng": "7.3958",
    "country": "Switzerland",
    "iso2": "CH",
    "admin_name": "Solothurn",
    "capital": "",
    "population": "17140",
    "population_proper": "17140"
  },
  {
    "city": "Olten",
    "lat": "47.3531",
    "lng": "7.9078",
    "country": "Switzerland",
    "iso2": "CH",
    "admin_name": "Solothurn",
    "capital": "",
    "population": "17133",
    "population_proper": "17133"
  },
  {
    "city": "Sierre",
    "lat": "46.2918",
    "lng": "7.5320",
    "country": "Switzerland",
    "iso2": "CH",
    "admin_name": "Valais",
    "capital": "",
    "population": "16860",
    "population_proper": "16860"
  },
  {
    "city": "Solothurn",
    "lat": "47.2081",
    "lng": "7.5375",
    "country": "Switzerland",
    "iso2": "CH",
    "admin_name": "Solothurn",
    "capital": "admin",
    "population": "16777",
    "population_proper": "16777"
  },
  {
    "city": "Pratteln",
    "lat": "47.5185",
    "lng": "7.6928",
    "country": "Switzerland",
    "iso2": "CH",
    "admin_name": "Basel-Landschaft",
    "capital": "",
    "population": "16621",
    "population_proper": "16621"
  },
  {
    "city": "Burgdorf",
    "lat": "47.0567",
    "lng": "7.6264",
    "country": "Switzerland",
    "iso2": "CH",
    "admin_name": "Bern",
    "capital": "",
    "population": "16280",
    "population_proper": "16280"
  },
  {
    "city": "Freienbach",
    "lat": "47.2047",
    "lng": "8.7578",
    "country": "Switzerland",
    "iso2": "CH",
    "admin_name": "Schwyz",
    "capital": "",
    "population": "16269",
    "population_proper": "16269"
  },
  {
    "city": "Wohlen",
    "lat": "47.3506",
    "lng": "8.2778",
    "country": "Switzerland",
    "iso2": "CH",
    "admin_name": "Aargau",
    "capital": "",
    "population": "16078",
    "population_proper": "16078"
  },
  {
    "city": "Locarno",
    "lat": "46.1664",
    "lng": "8.7997",
    "country": "Switzerland",
    "iso2": "CH",
    "admin_name": "Ticino",
    "capital": "",
    "population": "16012",
    "population_proper": "16012"
  },
  {
    "city": "Wallisellen",
    "lat": "47.4122",
    "lng": "8.5922",
    "country": "Switzerland",
    "iso2": "CH",
    "admin_name": "Zürich",
    "capital": "",
    "population": "15855",
    "population_proper": "15855"
  },
  {
    "city": "Morges",
    "lat": "46.5094",
    "lng": "6.4986",
    "country": "Switzerland",
    "iso2": "CH",
    "admin_name": "Vaud",
    "capital": "",
    "population": "15838",
    "population_proper": "15838"
  },
  {
    "city": "Steffisburg",
    "lat": "46.7831",
    "lng": "7.6333",
    "country": "Switzerland",
    "iso2": "CH",
    "admin_name": "Bern",
    "capital": "",
    "population": "15816",
    "population_proper": "15816"
  },
  {
    "city": "Herisau",
    "lat": "47.3851",
    "lng": "9.2786",
    "country": "Switzerland",
    "iso2": "CH",
    "admin_name": "Appenzell Ausserrhoden",
    "capital": "",
    "population": "15780",
    "population_proper": "15780"
  },
  {
    "city": "Langenthal",
    "lat": "47.2153",
    "lng": "7.7889",
    "country": "Switzerland",
    "iso2": "CH",
    "admin_name": "Bern",
    "capital": "",
    "population": "15639",
    "population_proper": "15639"
  },
  {
    "city": "Binningen",
    "lat": "47.5333",
    "lng": "7.5667",
    "country": "Switzerland",
    "iso2": "CH",
    "admin_name": "Basel-Landschaft",
    "capital": "",
    "population": "15580",
    "population_proper": "15580"
  },
  {
    "city": "Einsiedeln",
    "lat": "47.1278",
    "lng": "8.7431",
    "country": "Switzerland",
    "iso2": "CH",
    "admin_name": "Schwyz",
    "capital": "minor",
    "population": "15550",
    "population_proper": "15550"
  },
  {
    "city": "Lyss",
    "lat": "47.0750",
    "lng": "7.3069",
    "country": "Switzerland",
    "iso2": "CH",
    "admin_name": "Bern",
    "capital": "",
    "population": "15279",
    "population_proper": "15279"
  },
  {
    "city": "Mendrisio",
    "lat": "45.8667",
    "lng": "8.9833",
    "country": "Switzerland",
    "iso2": "CH",
    "admin_name": "Ticino",
    "capital": "",
    "population": "14942",
    "population_proper": "14942"
  },
  {
    "city": "Arbon",
    "lat": "47.5167",
    "lng": "9.4333",
    "country": "Switzerland",
    "iso2": "CH",
    "admin_name": "Thurgau",
    "capital": "",
    "population": "14537",
    "population_proper": "14537"
  },
  {
    "city": "Liestal",
    "lat": "47.4839",
    "lng": "7.7350",
    "country": "Switzerland",
    "iso2": "CH",
    "admin_name": "Basel-Landschaft",
    "capital": "admin",
    "population": "14390",
    "population_proper": "14390"
  },
  {
    "city": "Stäfa",
    "lat": "47.2401",
    "lng": "8.7328",
    "country": "Switzerland",
    "iso2": "CH",
    "admin_name": "Zürich",
    "capital": "",
    "population": "14389",
    "population_proper": "14389"
  },
  {
    "city": "Küsnacht",
    "lat": "47.3181",
    "lng": "8.5825",
    "country": "Switzerland",
    "iso2": "CH",
    "admin_name": "Zürich",
    "capital": "",
    "population": "14250",
    "population_proper": "14250"
  },
  {
    "city": "Horw",
    "lat": "47.0164",
    "lng": "8.3111",
    "country": "Switzerland",
    "iso2": "CH",
    "admin_name": "Luzern",
    "capital": "",
    "population": "14243",
    "population_proper": "14243"
  },
  {
    "city": "Schwyz",
    "lat": "47.0211",
    "lng": "8.6536",
    "country": "Switzerland",
    "iso2": "CH",
    "admin_name": "Schwyz",
    "capital": "admin",
    "population": "14177",
    "population_proper": "14177"
  },
  {
    "city": "Thônex",
    "lat": "46.2000",
    "lng": "6.2167",
    "country": "Switzerland",
    "iso2": "CH",
    "admin_name": "Genève",
    "capital": "",
    "population": "14122",
    "population_proper": "14122"
  },
  {
    "city": "Meilen",
    "lat": "47.2703",
    "lng": "8.6411",
    "country": "Switzerland",
    "iso2": "CH",
    "admin_name": "Zürich",
    "capital": "",
    "population": "13999",
    "population_proper": "13999"
  },
  {
    "city": "Oftringen",
    "lat": "47.3150",
    "lng": "7.9236",
    "country": "Switzerland",
    "iso2": "CH",
    "admin_name": "Aargau",
    "capital": "",
    "population": "13791",
    "population_proper": "13791"
  },
  {
    "city": "Amriswil",
    "lat": "47.5497",
    "lng": "9.3000",
    "country": "Switzerland",
    "iso2": "CH",
    "admin_name": "Thurgau",
    "capital": "",
    "population": "13534",
    "population_proper": "13534"
  },
  {
    "city": "Versoix",
    "lat": "46.2833",
    "lng": "6.1667",
    "country": "Switzerland",
    "iso2": "CH",
    "admin_name": "Genève",
    "capital": "",
    "population": "13422",
    "population_proper": "13422"
  },
  {
    "city": "Richterswil",
    "lat": "47.2081",
    "lng": "8.7058",
    "country": "Switzerland",
    "iso2": "CH",
    "admin_name": "Zürich",
    "capital": "",
    "population": "13407",
    "population_proper": "13407"
  },
  {
    "city": "Rheinfelden",
    "lat": "47.5539",
    "lng": "7.7958",
    "country": "Switzerland",
    "iso2": "CH",
    "admin_name": "Aargau",
    "capital": "minor",
    "population": "13337",
    "population_proper": "13337"
  },
  {
    "city": "Brig-Glis",
    "lat": "46.3159",
    "lng": "7.9876",
    "country": "Switzerland",
    "iso2": "CH",
    "admin_name": "Valais",
    "capital": "minor",
    "population": "13109",
    "population_proper": "13109"
  },
  {
    "city": "Gland",
    "lat": "46.4167",
    "lng": "6.2667",
    "country": "Switzerland",
    "iso2": "CH",
    "admin_name": "Vaud",
    "capital": "",
    "population": "13106",
    "population_proper": "13106"
  },
  {
    "city": "Küssnacht",
    "lat": "47.0828",
    "lng": "8.4408",
    "country": "Switzerland",
    "iso2": "CH",
    "admin_name": "Schwyz",
    "capital": "minor",
    "population": "13084",
    "population_proper": "13084"
  },
  {
    "city": "Muri",
    "lat": "46.9319",
    "lng": "7.4872",
    "country": "Switzerland",
    "iso2": "CH",
    "admin_name": "Bern",
    "capital": "",
    "population": "13058",
    "population_proper": "13058"
  },
  {
    "city": "Zollikon",
    "lat": "47.3422",
    "lng": "8.5783",
    "country": "Switzerland",
    "iso2": "CH",
    "admin_name": "Zürich",
    "capital": "",
    "population": "13008",
    "population_proper": "13008"
  },
  {
    "city": "Ecublens",
    "lat": "46.5276",
    "lng": "6.5605",
    "country": "Switzerland",
    "iso2": "CH",
    "admin_name": "Vaud",
    "capital": "",
    "population": "12854",
    "population_proper": "12854"
  },
  {
    "city": "Spiez",
    "lat": "46.6831",
    "lng": "7.6664",
    "country": "Switzerland",
    "iso2": "CH",
    "admin_name": "Bern",
    "capital": "",
    "population": "12810",
    "population_proper": "12810"
  },
  {
    "city": "Delémont",
    "lat": "47.3653",
    "lng": "7.3472",
    "country": "Switzerland",
    "iso2": "CH",
    "admin_name": "Jura",
    "capital": "admin",
    "population": "12682",
    "population_proper": "12682"
  },
  {
    "city": "Buchs",
    "lat": "47.1656",
    "lng": "9.4711",
    "country": "Switzerland",
    "iso2": "CH",
    "admin_name": "Sankt Gallen",
    "capital": "",
    "population": "12612",
    "population_proper": "12612"
  },
  {
    "city": "Prilly",
    "lat": "46.5333",
    "lng": "6.6000",
    "country": "Switzerland",
    "iso2": "CH",
    "admin_name": "Vaud",
    "capital": "",
    "population": "12399",
    "population_proper": "12399"
  },
  {
    "city": "Chêne-Bougeries",
    "lat": "46.1833",
    "lng": "6.1833",
    "country": "Switzerland",
    "iso2": "CH",
    "admin_name": "Genève",
    "capital": "",
    "population": "12215",
    "population_proper": "12215"
  },
  {
    "city": "Le Grand-Saconnex",
    "lat": "46.2333",
    "lng": "6.1167",
    "country": "Switzerland",
    "iso2": "CH",
    "admin_name": "Genève",
    "capital": "",
    "population": "12162",
    "population_proper": "12162"
  },
  {
    "city": "Rüti",
    "lat": "47.2614",
    "lng": "8.8556",
    "country": "Switzerland",
    "iso2": "CH",
    "admin_name": "Zürich",
    "capital": "",
    "population": "12098",
    "population_proper": "12098"
  },
  {
    "city": "Münchenstein",
    "lat": "47.5186",
    "lng": "7.6174",
    "country": "Switzerland",
    "iso2": "CH",
    "admin_name": "Basel-Landschaft",
    "capital": "",
    "population": "12096",
    "population_proper": "12096"
  },
  {
    "city": "Villars-sur-Glâne",
    "lat": "46.7833",
    "lng": "7.1167",
    "country": "Switzerland",
    "iso2": "CH",
    "admin_name": "Fribourg",
    "capital": "",
    "population": "12092",
    "population_proper": "12092"
  },
  {
    "city": "Affoltern am Albis",
    "lat": "47.2817",
    "lng": "8.4502",
    "country": "Switzerland",
    "iso2": "CH",
    "admin_name": "Zürich",
    "capital": "",
    "population": "12080",
    "population_proper": "12080"
  },
  {
    "city": "Arth",
    "lat": "47.0644",
    "lng": "8.5242",
    "country": "Switzerland",
    "iso2": "CH",
    "admin_name": "Schwyz",
    "capital": "",
    "population": "11983",
    "population_proper": "11983"
  },
  {
    "city": "La Tour-de-Peilz",
    "lat": "46.4500",
    "lng": "6.8667",
    "country": "Switzerland",
    "iso2": "CH",
    "admin_name": "Vaud",
    "capital": "",
    "population": "11829",
    "population_proper": "11829"
  },
  {
    "city": "Pfäffikon",
    "lat": "47.3667",
    "lng": "8.7822",
    "country": "Switzerland",
    "iso2": "CH",
    "admin_name": "Zürich",
    "capital": "minor",
    "population": "11817",
    "population_proper": "11817"
  },
  {
    "city": "Spreitenbach",
    "lat": "47.4181",
    "lng": "8.3661",
    "country": "Switzerland",
    "iso2": "CH",
    "admin_name": "Aargau",
    "capital": "",
    "population": "11788",
    "population_proper": "11788"
  },
  {
    "city": "Altstätten",
    "lat": "47.3780",
    "lng": "9.5488",
    "country": "Switzerland",
    "iso2": "CH",
    "admin_name": "Sankt Gallen",
    "capital": "minor",
    "population": "11730",
    "population_proper": "11730"
  },
  {
    "city": "Zofingen",
    "lat": "47.2884",
    "lng": "7.9475",
    "country": "Switzerland",
    "iso2": "CH",
    "admin_name": "Aargau",
    "capital": "",
    "population": "11655",
    "population_proper": "11655"
  },
  {
    "city": "Veyrier",
    "lat": "46.1667",
    "lng": "6.1833",
    "country": "Switzerland",
    "iso2": "CH",
    "admin_name": "Genève",
    "capital": "",
    "population": "11609",
    "population_proper": "11609"
  },
  {
    "city": "Bassersdorf",
    "lat": "47.4431",
    "lng": "8.6283",
    "country": "Switzerland",
    "iso2": "CH",
    "admin_name": "Zürich",
    "capital": "",
    "population": "11593",
    "population_proper": "11593"
  },
  {
    "city": "Weinfelden",
    "lat": "47.5698",
    "lng": "9.1120",
    "country": "Switzerland",
    "iso2": "CH",
    "admin_name": "Thurgau",
    "capital": "minor",
    "population": "11534",
    "population_proper": "11534"
  },
  {
    "city": "Belp",
    "lat": "46.8914",
    "lng": "7.4972",
    "country": "Switzerland",
    "iso2": "CH",
    "admin_name": "Bern",
    "capital": "",
    "population": "11439",
    "population_proper": "11439"
  },
  {
    "city": "Worb",
    "lat": "46.9306",
    "lng": "7.5644",
    "country": "Switzerland",
    "iso2": "CH",
    "admin_name": "Bern",
    "capital": "",
    "population": "11311",
    "population_proper": "11311"
  },
  {
    "city": "Hinwil",
    "lat": "47.3033",
    "lng": "8.8444",
    "country": "Switzerland",
    "iso2": "CH",
    "admin_name": "Zürich",
    "capital": "minor",
    "population": "11179",
    "population_proper": "11179"
  },
  {
    "city": "Romanshorn",
    "lat": "47.5635",
    "lng": "9.3564",
    "country": "Switzerland",
    "iso2": "CH",
    "admin_name": "Thurgau",
    "capital": "",
    "population": "11167",
    "population_proper": "11167"
  },
  {
    "city": "Oberwil",
    "lat": "47.5135",
    "lng": "7.5546",
    "country": "Switzerland",
    "iso2": "CH",
    "admin_name": "Basel-Landschaft",
    "capital": "",
    "population": "11136",
    "population_proper": "11136"
  },
  {
    "city": "Brugg",
    "lat": "47.4864",
    "lng": "8.2083",
    "country": "Switzerland",
    "iso2": "CH",
    "admin_name": "Aargau",
    "capital": "",
    "population": "11129",
    "population_proper": "11129"
  },
  {
    "city": "Möhlin",
    "lat": "47.5583",
    "lng": "7.8458",
    "country": "Switzerland",
    "iso2": "CH",
    "admin_name": "Aargau",
    "capital": "",
    "population": "11042",
    "population_proper": "11042"
  },
  {
    "city": "Männedorf",
    "lat": "47.2553",
    "lng": "8.6917",
    "country": "Switzerland",
    "iso2": "CH",
    "admin_name": "Zürich",
    "capital": "",
    "population": "10957",
    "population_proper": "10957"
  },
  {
    "city": "Davos",
    "lat": "46.8091",
    "lng": "9.8398",
    "country": "Switzerland",
    "iso2": "CH",
    "admin_name": "Graubünden",
    "capital": "minor",
    "population": "10862",
    "population_proper": "10862"
  },
  {
    "city": "Plan-les-Ouates",
    "lat": "46.1667",
    "lng": "6.1167",
    "country": "Switzerland",
    "iso2": "CH",
    "admin_name": "Genève",
    "capital": "",
    "population": "10656",
    "population_proper": "10656"
  },
  {
    "city": "Waltikon",
    "lat": "47.3667",
    "lng": "8.5833",
    "country": "Switzerland",
    "iso2": "CH",
    "admin_name": "Zürich",
    "capital": "",
    "population": "10600",
    "population_proper": "10600"
  },
  {
    "city": "Lenzburg",
    "lat": "47.3875",
    "lng": "8.1803",
    "country": "Switzerland",
    "iso2": "CH",
    "admin_name": "Aargau",
    "capital": "",
    "population": "10569",
    "population_proper": "10569"
  },
  {
    "city": "Flawil",
    "lat": "47.4053",
    "lng": "9.1977",
    "country": "Switzerland",
    "iso2": "CH",
    "admin_name": "Sankt Gallen",
    "capital": "",
    "population": "10520",
    "population_proper": "10520"
  },
  {
    "city": "Neuhausen am Rheinfall",
    "lat": "47.6831",
    "lng": "8.6167",
    "country": "Switzerland",
    "iso2": "CH",
    "admin_name": "Schaffhausen",
    "capital": "",
    "population": "10510",
    "population_proper": "10510"
  },
  {
    "city": "Le Locle",
    "lat": "47.0532",
    "lng": "6.7482",
    "country": "Switzerland",
    "iso2": "CH",
    "admin_name": "Neuchâtel",
    "capital": "",
    "population": "10433",
    "population_proper": "10433"
  },
  {
    "city": "Suhr",
    "lat": "47.3747",
    "lng": "8.0806",
    "country": "Switzerland",
    "iso2": "CH",
    "admin_name": "Aargau",
    "capital": "",
    "population": "10424",
    "population_proper": "10424"
  },
  {
    "city": "Sarnen",
    "lat": "46.8969",
    "lng": "8.2469",
    "country": "Switzerland",
    "iso2": "CH",
    "admin_name": "Obwalden",
    "capital": "admin",
    "population": "10368",
    "population_proper": "10368"
  },
  {
    "city": "Aesch",
    "lat": "47.4694",
    "lng": "7.5942",
    "country": "Switzerland",
    "iso2": "CH",
    "admin_name": "Basel-Landschaft",
    "capital": "",
    "population": "10352",
    "population_proper": "10352"
  },
  {
    "city": "Birsfelden",
    "lat": "47.5531",
    "lng": "7.6231",
    "country": "Switzerland",
    "iso2": "CH",
    "admin_name": "Basel-Landschaft",
    "capital": "",
    "population": "10299",
    "population_proper": "10299"
  },
  {
    "city": "Lutry",
    "lat": "46.5151",
    "lng": "6.6990",
    "country": "Switzerland",
    "iso2": "CH",
    "admin_name": "Vaud",
    "capital": "",
    "population": "10289",
    "population_proper": "10289"
  },
  {
    "city": "Bernex",
    "lat": "46.1784",
    "lng": "6.0684",
    "country": "Switzerland",
    "iso2": "CH",
    "admin_name": "Genève",
    "capital": "",
    "population": "10233",
    "population_proper": "10233"
  },
  {
    "city": "Maur",
    "lat": "47.3417",
    "lng": "8.6703",
    "country": "Switzerland",
    "iso2": "CH",
    "admin_name": "Zürich",
    "capital": "",
    "population": "10148",
    "population_proper": "10148"
  },
  {
    "city": "Aigle",
    "lat": "46.3173",
    "lng": "6.9646",
    "country": "Switzerland",
    "iso2": "CH",
    "admin_name": "Valais",
    "capital": "",
    "population": "10131",
    "population_proper": "10131"
  },
  {
    "city": "Naters",
    "lat": "46.3237",
    "lng": "7.9886",
    "country": "Switzerland",
    "iso2": "CH",
    "admin_name": "Valais",
    "capital": "",
    "population": "10073",
    "population_proper": "10073"
  },
  {
    "city": "Steinhaus",
    "lat": "47.1969",
    "lng": "8.4861",
    "country": "Switzerland",
    "iso2": "CH",
    "admin_name": "Luzern",
    "capital": "",
    "population": "10025",
    "population_proper": "10025"
  },
  {
    "city": "Therwil",
    "lat": "47.4997",
    "lng": "7.5500",
    "country": "Switzerland",
    "iso2": "CH",
    "admin_name": "Basel-Landschaft",
    "capital": "",
    "population": "9947",
    "population_proper": "9947"
  },
  {
    "city": "Payerne",
    "lat": "46.8167",
    "lng": "6.9333",
    "country": "Switzerland",
    "iso2": "CH",
    "admin_name": "Vaud",
    "capital": "",
    "population": "9943",
    "population_proper": "9943"
  },
  {
    "city": "Gossau",
    "lat": "47.3081",
    "lng": "8.7567",
    "country": "Switzerland",
    "iso2": "CH",
    "admin_name": "Zürich",
    "capital": "",
    "population": "9937",
    "population_proper": "9937"
  },
  {
    "city": "Sursee",
    "lat": "47.1742",
    "lng": "8.1081",
    "country": "Switzerland",
    "iso2": "CH",
    "admin_name": "Luzern",
    "capital": "minor",
    "population": "9900",
    "population_proper": "9900"
  },
  {
    "city": "Hochdorf",
    "lat": "47.1664",
    "lng": "8.2889",
    "country": "Switzerland",
    "iso2": "CH",
    "admin_name": "Luzern",
    "capital": "",
    "population": "9832",
    "population_proper": "9832"
  },
  {
    "city": "Urdorf",
    "lat": "47.3867",
    "lng": "8.4278",
    "country": "Switzerland",
    "iso2": "CH",
    "admin_name": "Zürich",
    "capital": "",
    "population": "9768",
    "population_proper": "9768"
  },
  {
    "city": "Wald",
    "lat": "47.2753",
    "lng": "8.9144",
    "country": "Switzerland",
    "iso2": "CH",
    "admin_name": "Zürich",
    "capital": "",
    "population": "9758",
    "population_proper": "9758"
  },
  {
    "city": "Estavayer-le-Lac",
    "lat": "46.8500",
    "lng": "6.8472",
    "country": "Switzerland",
    "iso2": "CH",
    "admin_name": "Fribourg",
    "capital": "",
    "population": "9712",
    "population_proper": "9712"
  },
  {
    "city": "Wittenbach",
    "lat": "47.4667",
    "lng": "9.3795",
    "country": "Switzerland",
    "iso2": "CH",
    "admin_name": "Sankt Gallen",
    "capital": "",
    "population": "9691",
    "population_proper": "9691"
  },
  {
    "city": "Widnau",
    "lat": "47.3997",
    "lng": "9.6333",
    "country": "Switzerland",
    "iso2": "CH",
    "admin_name": "Sankt Gallen",
    "capital": "",
    "population": "9616",
    "population_proper": "9616"
  },
  {
    "city": "Epalinges",
    "lat": "46.5500",
    "lng": "6.6667",
    "country": "Switzerland",
    "iso2": "CH",
    "admin_name": "Vaud",
    "capital": "",
    "population": "9611",
    "population_proper": "9611"
  },
  {
    "city": "Rorschach",
    "lat": "47.4786",
    "lng": "9.4936",
    "country": "Switzerland",
    "iso2": "CH",
    "admin_name": "Sankt Gallen",
    "capital": "minor",
    "population": "9439",
    "population_proper": "9439"
  },
  {
    "city": "Embrach",
    "lat": "47.5103",
    "lng": "8.5933",
    "country": "Switzerland",
    "iso2": "CH",
    "admin_name": "Zürich",
    "capital": "",
    "population": "9419",
    "population_proper": "9419"
  },
  {
    "city": "Altdorf",
    "lat": "46.8806",
    "lng": "8.6394",
    "country": "Switzerland",
    "iso2": "CH",
    "admin_name": "Uri",
    "capital": "admin",
    "population": "9401",
    "population_proper": "9401"
  },
  {
    "city": "Langnau",
    "lat": "46.9433",
    "lng": "7.7853",
    "country": "Switzerland",
    "iso2": "CH",
    "admin_name": "Bern",
    "capital": "minor",
    "population": "9366",
    "population_proper": "9366"
  },
  {
    "city": "Goldach",
    "lat": "47.4831",
    "lng": "9.4664",
    "country": "Switzerland",
    "iso2": "CH",
    "admin_name": "Sankt Gallen",
    "capital": "",
    "population": "9269",
    "population_proper": "9269"
  },
  {
    "city": "Schübelbach",
    "lat": "47.1733",
    "lng": "8.9264",
    "country": "Switzerland",
    "iso2": "CH",
    "admin_name": "Schwyz",
    "capital": "",
    "population": "9249",
    "population_proper": "9249"
  },
  {
    "city": "Arlesheim",
    "lat": "47.4922",
    "lng": "7.6203",
    "country": "Switzerland",
    "iso2": "CH",
    "admin_name": "Basel-Landschaft",
    "capital": "",
    "population": "9202",
    "population_proper": "9202"
  },
  {
    "city": "Niederhasli",
    "lat": "47.4822",
    "lng": "8.4861",
    "country": "Switzerland",
    "iso2": "CH",
    "admin_name": "Zürich",
    "capital": "",
    "population": "9188",
    "population_proper": "9188"
  },
  {
    "city": "Rothrist",
    "lat": "47.3028",
    "lng": "7.8833",
    "country": "Switzerland",
    "iso2": "CH",
    "admin_name": "Aargau",
    "capital": "",
    "population": "9121",
    "population_proper": "9121"
  },
  {
    "city": "Aadorf",
    "lat": "47.4939",
    "lng": "8.8975",
    "country": "Switzerland",
    "iso2": "CH",
    "admin_name": "Thurgau",
    "capital": "",
    "population": "9036",
    "population_proper": "9036"
  },
  {
    "city": "Ingenbohl",
    "lat": "47.0028",
    "lng": "8.6117",
    "country": "Switzerland",
    "iso2": "CH",
    "admin_name": "Schwyz",
    "capital": "",
    "population": "8912",
    "population_proper": "8912"
  },
  {
    "city": "Oberriet",
    "lat": "47.3164",
    "lng": "9.5664",
    "country": "Switzerland",
    "iso2": "CH",
    "admin_name": "Sankt Gallen",
    "capital": "",
    "population": "8878",
    "population_proper": "8878"
  },
  {
    "city": "Zuchwil",
    "lat": "47.2056",
    "lng": "7.5597",
    "country": "Switzerland",
    "iso2": "CH",
    "admin_name": "Solothurn",
    "capital": "",
    "population": "8875",
    "population_proper": "8875"
  },
  {
    "city": "Unterägeri",
    "lat": "47.1386",
    "lng": "8.5844",
    "country": "Switzerland",
    "iso2": "CH",
    "admin_name": "Zug",
    "capital": "",
    "population": "8867",
    "population_proper": "8867"
  },
  {
    "city": "Landquart",
    "lat": "46.9497",
    "lng": "9.5667",
    "country": "Switzerland",
    "iso2": "CH",
    "admin_name": "Graubünden",
    "capital": "",
    "population": "8849",
    "population_proper": "8849"
  },
  {
    "city": "Neuenhof",
    "lat": "47.4469",
    "lng": "8.3292",
    "country": "Switzerland",
    "iso2": "CH",
    "admin_name": "Aargau",
    "capital": "",
    "population": "8824",
    "population_proper": "8824"
  },
  {
    "city": "Hünenberg",
    "lat": "47.1761",
    "lng": "8.4264",
    "country": "Switzerland",
    "iso2": "CH",
    "admin_name": "Zug",
    "capital": "",
    "population": "8807",
    "population_proper": "8807"
  },
  {
    "city": "Fully",
    "lat": "46.1333",
    "lng": "7.1167",
    "country": "Switzerland",
    "iso2": "CH",
    "admin_name": "Valais",
    "capital": "",
    "population": "8759",
    "population_proper": "8759"
  },
  {
    "city": "Lachen",
    "lat": "47.1911",
    "lng": "8.8567",
    "country": "Switzerland",
    "iso2": "CH",
    "admin_name": "Schwyz",
    "capital": "minor",
    "population": "8754",
    "population_proper": "8754"
  },
  {
    "city": "Wattwil",
    "lat": "47.2957",
    "lng": "9.0830",
    "country": "Switzerland",
    "iso2": "CH",
    "admin_name": "Sankt Gallen",
    "capital": "",
    "population": "8736",
    "population_proper": "8736"
  },
  {
    "city": "Bussy",
    "lat": "46.5500",
    "lng": "6.5500",
    "country": "Switzerland",
    "iso2": "CH",
    "admin_name": "Vaud",
    "capital": "",
    "population": "8736",
    "population_proper": "8736"
  },
  {
    "city": "Conthey",
    "lat": "46.2725",
    "lng": "7.2548",
    "country": "Switzerland",
    "iso2": "CH",
    "admin_name": "Valais",
    "capital": "",
    "population": "8691",
    "population_proper": "8691"
  },
  {
    "city": "Mels",
    "lat": "47.0497",
    "lng": "9.4167",
    "country": "Switzerland",
    "iso2": "CH",
    "admin_name": "Sankt Gallen",
    "capital": "",
    "population": "8620",
    "population_proper": "8620"
  },
  {
    "city": "Egg",
    "lat": "47.3019",
    "lng": "8.6906",
    "country": "Switzerland",
    "iso2": "CH",
    "admin_name": "Zürich",
    "capital": "",
    "population": "8596",
    "population_proper": "8596"
  },
  {
    "city": "Hombrechtikon",
    "lat": "47.2533",
    "lng": "8.7703",
    "country": "Switzerland",
    "iso2": "CH",
    "admin_name": "Zürich",
    "capital": "",
    "population": "8595",
    "population_proper": "8595"
  },
  {
    "city": "Fällanden",
    "lat": "47.3717",
    "lng": "8.6400",
    "country": "Switzerland",
    "iso2": "CH",
    "admin_name": "Zürich",
    "capital": "",
    "population": "8575",
    "population_proper": "8575"
  },
  {
    "city": "Biberist",
    "lat": "47.1828",
    "lng": "7.5586",
    "country": "Switzerland",
    "iso2": "CH",
    "admin_name": "Solothurn",
    "capital": "",
    "population": "8567",
    "population_proper": "8567"
  },
  {
    "city": "Obersiggenthal",
    "lat": "47.4869",
    "lng": "8.2921",
    "country": "Switzerland",
    "iso2": "CH",
    "admin_name": "Aargau",
    "capital": "",
    "population": "8565",
    "population_proper": "8565"
  },
  {
    "city": "Le Mont-sur-Lausanne",
    "lat": "46.5500",
    "lng": "6.6333",
    "country": "Switzerland",
    "iso2": "CH",
    "admin_name": "Vaud",
    "capital": "",
    "population": "8523",
    "population_proper": "8523"
  },
  {
    "city": "Reinach",
    "lat": "47.2539",
    "lng": "8.1833",
    "country": "Switzerland",
    "iso2": "CH",
    "admin_name": "Aargau",
    "capital": "",
    "population": "8498",
    "population_proper": "8498"
  },
  {
    "city": "Kilchberg",
    "lat": "47.3247",
    "lng": "8.5492",
    "country": "Switzerland",
    "iso2": "CH",
    "admin_name": "Zürich",
    "capital": "",
    "population": "8437",
    "population_proper": "8437"
  },
  {
    "city": "Stans",
    "lat": "46.9594",
    "lng": "8.3667",
    "country": "Switzerland",
    "iso2": "CH",
    "admin_name": "Nidwalden",
    "capital": "admin",
    "population": "8393",
    "population_proper": "8393"
  },
  {
    "city": "Oberentfelden",
    "lat": "47.3597",
    "lng": "8.0486",
    "country": "Switzerland",
    "iso2": "CH",
    "admin_name": "Aargau",
    "capital": "",
    "population": "8360",
    "population_proper": "8360"
  },
  {
    "city": "Murten",
    "lat": "46.9281",
    "lng": "7.1169",
    "country": "Switzerland",
    "iso2": "CH",
    "admin_name": "Fribourg",
    "capital": "",
    "population": "8222",
    "population_proper": "8222"
  },
  {
    "city": "Bagnes",
    "lat": "46.0833",
    "lng": "7.2167",
    "country": "Switzerland",
    "iso2": "CH",
    "admin_name": "Valais",
    "capital": "",
    "population": "8096",
    "population_proper": "8096"
  },
  {
    "city": "Aarburg",
    "lat": "47.3206",
    "lng": "7.9014",
    "country": "Switzerland",
    "iso2": "CH",
    "admin_name": "Aargau",
    "capital": "",
    "population": "8068",
    "population_proper": "8068"
  },
  {
    "city": "Domat/Ems",
    "lat": "46.8198",
    "lng": "9.4545",
    "country": "Switzerland",
    "iso2": "CH",
    "admin_name": "Graubünden",
    "capital": "minor",
    "population": "8037",
    "population_proper": "8037"
  },
  {
    "city": "Chiasso",
    "lat": "45.8353",
    "lng": "9.0320",
    "country": "Switzerland",
    "iso2": "CH",
    "admin_name": "Ticino",
    "capital": "",
    "population": "7975",
    "population_proper": "7975"
  },
  {
    "city": "Buchs",
    "lat": "47.3889",
    "lng": "8.0747",
    "country": "Switzerland",
    "iso2": "CH",
    "admin_name": "Aargau",
    "capital": "",
    "population": "7966",
    "population_proper": "7966"
  },
  {
    "city": "Düdingen",
    "lat": "46.8461",
    "lng": "7.1906",
    "country": "Switzerland",
    "iso2": "CH",
    "admin_name": "Fribourg",
    "capital": "",
    "population": "7961",
    "population_proper": "7961"
  },
  {
    "city": "Crissier",
    "lat": "46.5500",
    "lng": "6.5833",
    "country": "Switzerland",
    "iso2": "CH",
    "admin_name": "Vaud",
    "capital": "",
    "population": "7930",
    "population_proper": "7930"
  },
  {
    "city": "Rümlang",
    "lat": "47.4533",
    "lng": "8.5331",
    "country": "Switzerland",
    "iso2": "CH",
    "admin_name": "Zürich",
    "capital": "",
    "population": "7929",
    "population_proper": "7929"
  },
  {
    "city": "Visp",
    "lat": "46.2922",
    "lng": "7.8828",
    "country": "Switzerland",
    "iso2": "CH",
    "admin_name": "Valais",
    "capital": "",
    "population": "7891",
    "population_proper": "7891"
  },
  {
    "city": "Muri",
    "lat": "47.2747",
    "lng": "8.3417",
    "country": "Switzerland",
    "iso2": "CH",
    "admin_name": "Aargau",
    "capital": "minor",
    "population": "7810",
    "population_proper": "7810"
  },
  {
    "city": "Au",
    "lat": "47.4331",
    "lng": "9.6333",
    "country": "Switzerland",
    "iso2": "CH",
    "admin_name": "Sankt Gallen",
    "capital": "",
    "population": "7788",
    "population_proper": "7788"
  },
  {
    "city": "Willisau",
    "lat": "47.1206",
    "lng": "7.9928",
    "country": "Switzerland",
    "iso2": "CH",
    "admin_name": "Luzern",
    "capital": "",
    "population": "7780",
    "population_proper": "7780"
  },
  {
    "city": "Bex",
    "lat": "46.2500",
    "lng": "7.0167",
    "country": "Switzerland",
    "iso2": "CH",
    "admin_name": "Vaud",
    "capital": "",
    "population": "7771",
    "population_proper": "7771"
  },
  {
    "city": "Sirnach",
    "lat": "47.4664",
    "lng": "8.9997",
    "country": "Switzerland",
    "iso2": "CH",
    "admin_name": "Thurgau",
    "capital": "",
    "population": "7767",
    "population_proper": "7767"
  },
  {
    "city": "Bremgarten",
    "lat": "47.3528",
    "lng": "8.3400",
    "country": "Switzerland",
    "iso2": "CH",
    "admin_name": "Aargau",
    "capital": "minor",
    "population": "7765",
    "population_proper": "7765"
  },
  {
    "city": "Gränichen",
    "lat": "47.3583",
    "lng": "8.0997",
    "country": "Switzerland",
    "iso2": "CH",
    "admin_name": "Aargau",
    "capital": "",
    "population": "7733",
    "population_proper": "7733"
  },
  {
    "city": "Chavannes-près-Renens",
    "lat": "46.5282",
    "lng": "6.5762",
    "country": "Switzerland",
    "iso2": "CH",
    "admin_name": "Vaud",
    "capital": "",
    "population": "7724",
    "population_proper": "7724"
  },
  {
    "city": "Savièse",
    "lat": "46.2500",
    "lng": "7.3333",
    "country": "Switzerland",
    "iso2": "CH",
    "admin_name": "Valais",
    "capital": "",
    "population": "7712",
    "population_proper": "7712"
  },
  {
    "city": "Dietlikon",
    "lat": "47.4200",
    "lng": "8.6192",
    "country": "Switzerland",
    "iso2": "CH",
    "admin_name": "Zürich",
    "capital": "",
    "population": "7685",
    "population_proper": "7685"
  },
  {
    "city": "Windisch",
    "lat": "47.4803",
    "lng": "8.2222",
    "country": "Switzerland",
    "iso2": "CH",
    "admin_name": "Aargau",
    "capital": "",
    "population": "7654",
    "population_proper": "7654"
  },
  {
    "city": "Rothenburg",
    "lat": "47.0939",
    "lng": "8.2717",
    "country": "Switzerland",
    "iso2": "CH",
    "admin_name": "Luzern",
    "capital": "",
    "population": "7571",
    "population_proper": "7571"
  },
  {
    "city": "Dürnten",
    "lat": "47.2789",
    "lng": "8.8433",
    "country": "Switzerland",
    "iso2": "CH",
    "admin_name": "Zürich",
    "capital": "",
    "population": "7518",
    "population_proper": "7518"
  },
  {
    "city": "Langnau am Albis",
    "lat": "47.2894",
    "lng": "8.5414",
    "country": "Switzerland",
    "iso2": "CH",
    "admin_name": "Zürich",
    "capital": "",
    "population": "7500",
    "population_proper": "7500"
  },
  {
    "city": "Ollon",
    "lat": "46.2973",
    "lng": "6.9935",
    "country": "Switzerland",
    "iso2": "CH",
    "admin_name": "Vaud",
    "capital": "",
    "population": "7497",
    "population_proper": "7497"
  },
  {
    "city": "Hirslen",
    "lat": "47.3646",
    "lng": "8.5663",
    "country": "Switzerland",
    "iso2": "CH",
    "admin_name": "Zürich",
    "capital": "",
    "population": "7465",
    "population_proper": "7465"
  },
  {
    "city": "Moutier",
    "lat": "47.2803",
    "lng": "7.3708",
    "country": "Switzerland",
    "iso2": "CH",
    "admin_name": "Bern",
    "capital": "",
    "population": "7378",
    "population_proper": "7378"
  },
  {
    "city": "Villmergen",
    "lat": "47.3483",
    "lng": "8.2456",
    "country": "Switzerland",
    "iso2": "CH",
    "admin_name": "Aargau",
    "capital": "",
    "population": "7324",
    "population_proper": "7324"
  },
  {
    "city": "Minusio",
    "lat": "46.1833",
    "lng": "8.8167",
    "country": "Switzerland",
    "iso2": "CH",
    "admin_name": "Ticino",
    "capital": "",
    "population": "7303",
    "population_proper": "7303"
  },
  {
    "city": "Seuzach",
    "lat": "47.5358",
    "lng": "8.7294",
    "country": "Switzerland",
    "iso2": "CH",
    "admin_name": "Zürich",
    "capital": "",
    "population": "7291",
    "population_proper": "7291"
  },
  {
    "city": "Rorschacherberg",
    "lat": "47.4664",
    "lng": "9.5000",
    "country": "Switzerland",
    "iso2": "CH",
    "admin_name": "Sankt Gallen",
    "capital": "",
    "population": "7285",
    "population_proper": "7285"
  },
  {
    "city": "Wollerau",
    "lat": "47.1956",
    "lng": "8.7194",
    "country": "Switzerland",
    "iso2": "CH",
    "admin_name": "Schwyz",
    "capital": "",
    "population": "7255",
    "population_proper": "7255"
  },
  {
    "city": "Untersiggenthal",
    "lat": "47.5020",
    "lng": "8.2538",
    "country": "Switzerland",
    "iso2": "CH",
    "admin_name": "Aargau",
    "capital": "",
    "population": "7240",
    "population_proper": "7240"
  },
  {
    "city": "Meggen",
    "lat": "47.0464",
    "lng": "8.3744",
    "country": "Switzerland",
    "iso2": "CH",
    "admin_name": "Luzern",
    "capital": "",
    "population": "7238",
    "population_proper": "7238"
  },
  {
    "city": "Herzogenbuchsee",
    "lat": "47.1884",
    "lng": "7.7062",
    "country": "Switzerland",
    "iso2": "CH",
    "admin_name": "Bern",
    "capital": "",
    "population": "7197",
    "population_proper": "7197"
  },
  {
    "city": "Bubikon",
    "lat": "47.2694",
    "lng": "8.8203",
    "country": "Switzerland",
    "iso2": "CH",
    "admin_name": "Zürich",
    "capital": "",
    "population": "7194",
    "population_proper": "7194"
  },
  {
    "city": "Reiden",
    "lat": "47.2431",
    "lng": "7.9683",
    "country": "Switzerland",
    "iso2": "CH",
    "admin_name": "Luzern",
    "capital": "",
    "population": "7131",
    "population_proper": "7131"
  },
  {
    "city": "Altendorf",
    "lat": "47.1922",
    "lng": "8.8300",
    "country": "Switzerland",
    "iso2": "CH",
    "admin_name": "Schwyz",
    "capital": "",
    "population": "7081",
    "population_proper": "7081"
  },
  {
    "city": "Grabs",
    "lat": "47.1831",
    "lng": "9.4500",
    "country": "Switzerland",
    "iso2": "CH",
    "admin_name": "Sankt Gallen",
    "capital": "",
    "population": "7068",
    "population_proper": "7068"
  },
  {
    "city": "Orbe",
    "lat": "46.7245",
    "lng": "6.5322",
    "country": "Switzerland",
    "iso2": "CH",
    "admin_name": "Vaud",
    "capital": "",
    "population": "6987",
    "population_proper": "6987"
  },
  {
    "city": "Châtel-Saint-Denis",
    "lat": "46.5269",
    "lng": "6.9011",
    "country": "Switzerland",
    "iso2": "CH",
    "admin_name": "Fribourg",
    "capital": "",
    "population": "6969",
    "population_proper": "6969"
  },
  {
    "city": "Oberglatt",
    "lat": "47.4775",
    "lng": "8.5200",
    "country": "Switzerland",
    "iso2": "CH",
    "admin_name": "Zürich",
    "capital": "",
    "population": "6964",
    "population_proper": "6964"
  },
  {
    "city": "Frutigen",
    "lat": "46.5831",
    "lng": "7.6497",
    "country": "Switzerland",
    "iso2": "CH",
    "admin_name": "Bern",
    "capital": "",
    "population": "6921",
    "population_proper": "6921"
  },
  {
    "city": "Ruswil",
    "lat": "47.0836",
    "lng": "8.1261",
    "country": "Switzerland",
    "iso2": "CH",
    "admin_name": "Luzern",
    "capital": "",
    "population": "6856",
    "population_proper": "6856"
  },
  {
    "city": "Schwarzenburg",
    "lat": "46.8167",
    "lng": "7.3333",
    "country": "Switzerland",
    "iso2": "CH",
    "admin_name": "Bern",
    "capital": "",
    "population": "6829",
    "population_proper": "6829"
  },
  {
    "city": "Heimberg",
    "lat": "46.7831",
    "lng": "7.5997",
    "country": "Switzerland",
    "iso2": "CH",
    "admin_name": "Bern",
    "capital": "",
    "population": "6827",
    "population_proper": "6827"
  },
  {
    "city": "Saanen",
    "lat": "46.4831",
    "lng": "7.2664",
    "country": "Switzerland",
    "iso2": "CH",
    "admin_name": "Bern",
    "capital": "",
    "population": "6817",
    "population_proper": "6817"
  },
  {
    "city": "Nidau",
    "lat": "47.1256",
    "lng": "7.2403",
    "country": "Switzerland",
    "iso2": "CH",
    "admin_name": "Bern",
    "capital": "",
    "population": "6815",
    "population_proper": "6815"
  },
  {
    "city": "Dornach",
    "lat": "47.4789",
    "lng": "7.6181",
    "country": "Switzerland",
    "iso2": "CH",
    "admin_name": "Solothurn",
    "capital": "",
    "population": "6778",
    "population_proper": "6778"
  },
  {
    "city": "Losone",
    "lat": "46.1689",
    "lng": "8.7421",
    "country": "Switzerland",
    "iso2": "CH",
    "admin_name": "Ticino",
    "capital": "",
    "population": "6701",
    "population_proper": "6701"
  },
  {
    "city": "Bottmingen",
    "lat": "47.5236",
    "lng": "7.5697",
    "country": "Switzerland",
    "iso2": "CH",
    "admin_name": "Basel-Landschaft",
    "capital": "",
    "population": "6691",
    "population_proper": "6691"
  },
  {
    "city": "Sissach",
    "lat": "47.4644",
    "lng": "7.8106",
    "country": "Switzerland",
    "iso2": "CH",
    "admin_name": "Basel-Landschaft",
    "capital": "",
    "population": "6681",
    "population_proper": "6681"
  },
  {
    "city": "Porrentruy",
    "lat": "47.4167",
    "lng": "7.0833",
    "country": "Switzerland",
    "iso2": "CH",
    "admin_name": "Jura",
    "capital": "",
    "population": "6675",
    "population_proper": "6675"
  },
  {
    "city": "Beromünster",
    "lat": "47.1997",
    "lng": "8.2000",
    "country": "Switzerland",
    "iso2": "CH",
    "admin_name": "Luzern",
    "capital": "",
    "population": "6580",
    "population_proper": "6580"
  },
  {
    "city": "Thal",
    "lat": "47.4664",
    "lng": "9.5667",
    "country": "Switzerland",
    "iso2": "CH",
    "admin_name": "Sankt Gallen",
    "capital": "",
    "population": "6570",
    "population_proper": "6570"
  },
  {
    "city": "Oberengstringen",
    "lat": "47.4103",
    "lng": "8.4633",
    "country": "Switzerland",
    "iso2": "CH",
    "admin_name": "Zürich",
    "capital": "",
    "population": "6569",
    "population_proper": "6569"
  },
  {
    "city": "Trimbach",
    "lat": "47.3636",
    "lng": "7.9000",
    "country": "Switzerland",
    "iso2": "CH",
    "admin_name": "Solothurn",
    "capital": "",
    "population": "6543",
    "population_proper": "6543"
  },
  {
    "city": "Wiesendangen",
    "lat": "47.5222",
    "lng": "8.7911",
    "country": "Switzerland",
    "iso2": "CH",
    "admin_name": "Zürich",
    "capital": "",
    "population": "6521",
    "population_proper": "6521"
  },
  {
    "city": "Derendingen",
    "lat": "47.1919",
    "lng": "7.5899",
    "country": "Switzerland",
    "iso2": "CH",
    "admin_name": "Solothurn",
    "capital": "",
    "population": "6483",
    "population_proper": "6483"
  },
  {
    "city": "Würenlos",
    "lat": "47.4418",
    "lng": "8.3647",
    "country": "Switzerland",
    "iso2": "CH",
    "admin_name": "Aargau",
    "capital": "",
    "population": "6482",
    "population_proper": "6482"
  },
  {
    "city": "Diepoldsau",
    "lat": "47.3831",
    "lng": "9.6500",
    "country": "Switzerland",
    "iso2": "CH",
    "admin_name": "Sankt Gallen",
    "capital": "",
    "population": "6469",
    "population_proper": "6469"
  },
  {
    "city": "Frenkendorf",
    "lat": "47.5031",
    "lng": "7.7144",
    "country": "Switzerland",
    "iso2": "CH",
    "admin_name": "Basel-Landschaft",
    "capital": "",
    "population": "6435",
    "population_proper": "6435"
  },
  {
    "city": "Uznach",
    "lat": "47.2242",
    "lng": "8.9839",
    "country": "Switzerland",
    "iso2": "CH",
    "admin_name": "Sankt Gallen",
    "capital": "",
    "population": "6416",
    "population_proper": "6416"
  },
  {
    "city": "Oberuzwil",
    "lat": "47.4294",
    "lng": "9.1236",
    "country": "Switzerland",
    "iso2": "CH",
    "admin_name": "Sankt Gallen",
    "capital": "",
    "population": "6412",
    "population_proper": "6412"
  },
  {
    "city": "Birmensdorf",
    "lat": "47.3542",
    "lng": "8.4378",
    "country": "Switzerland",
    "iso2": "CH",
    "admin_name": "Zürich",
    "capital": "",
    "population": "6385",
    "population_proper": "6385"
  },
  {
    "city": "Fehraltorf",
    "lat": "47.3861",
    "lng": "8.7547",
    "country": "Switzerland",
    "iso2": "CH",
    "admin_name": "Zürich",
    "capital": "",
    "population": "6378",
    "population_proper": "6378"
  },
  {
    "city": "Vétroz",
    "lat": "46.2258",
    "lng": "7.2707",
    "country": "Switzerland",
    "iso2": "CH",
    "admin_name": "Valais",
    "capital": "",
    "population": "6372",
    "population_proper": "6372"
  },
  {
    "city": "Kerns",
    "lat": "46.9025",
    "lng": "8.2761",
    "country": "Switzerland",
    "iso2": "CH",
    "admin_name": "Obwalden",
    "capital": "",
    "population": "6337",
    "population_proper": "6337"
  },
  {
    "city": "Menziken",
    "lat": "47.2400",
    "lng": "8.1917",
    "country": "Switzerland",
    "iso2": "CH",
    "admin_name": "Aargau",
    "capital": "",
    "population": "6330",
    "population_proper": "6330"
  },
  {
    "city": "Buchs",
    "lat": "47.4589",
    "lng": "8.4378",
    "country": "Switzerland",
    "iso2": "CH",
    "admin_name": "Zürich",
    "capital": "",
    "population": "6303",
    "population_proper": "6303"
  },
  {
    "city": "Herrliberg",
    "lat": "47.2972",
    "lng": "8.6302",
    "country": "Switzerland",
    "iso2": "CH",
    "admin_name": "Zürich",
    "capital": "",
    "population": "6290",
    "population_proper": "6290"
  },
  {
    "city": "Oensingen",
    "lat": "47.2886",
    "lng": "7.7139",
    "country": "Switzerland",
    "iso2": "CH",
    "admin_name": "Solothurn",
    "capital": "",
    "population": "6284",
    "population_proper": "6284"
  },
  {
    "city": "Teufen",
    "lat": "47.3900",
    "lng": "9.3900",
    "country": "Switzerland",
    "iso2": "CH",
    "admin_name": "Appenzell Ausserrhoden",
    "capital": "",
    "population": "6265",
    "population_proper": "6265"
  },
  {
    "city": "Bolligen",
    "lat": "46.9761",
    "lng": "7.4986",
    "country": "Switzerland",
    "iso2": "CH",
    "admin_name": "Bern",
    "capital": "",
    "population": "6262",
    "population_proper": "6262"
  },
  {
    "city": "Rolle",
    "lat": "46.4575",
    "lng": "6.3317",
    "country": "Switzerland",
    "iso2": "CH",
    "admin_name": "Vaud",
    "capital": "",
    "population": "6259",
    "population_proper": "6259"
  },
  {
    "city": "Massagno",
    "lat": "46.0167",
    "lng": "8.9500",
    "country": "Switzerland",
    "iso2": "CH",
    "admin_name": "Ticino",
    "capital": "",
    "population": "6227",
    "population_proper": "6227"
  },
  {
    "city": "Gelterkinden",
    "lat": "47.4653",
    "lng": "7.8528",
    "country": "Switzerland",
    "iso2": "CH",
    "admin_name": "Basel-Landschaft",
    "capital": "",
    "population": "6200",
    "population_proper": "6200"
  },
  {
    "city": "Küttigen",
    "lat": "47.4164",
    "lng": "8.0500",
    "country": "Switzerland",
    "iso2": "CH",
    "admin_name": "Aargau",
    "capital": "",
    "population": "6180",
    "population_proper": "6180"
  },
  {
    "city": "Blonay",
    "lat": "46.4667",
    "lng": "6.9000",
    "country": "Switzerland",
    "iso2": "CH",
    "admin_name": "Vaud",
    "capital": "",
    "population": "6173",
    "population_proper": "6173"
  },
  {
    "city": "Boudry",
    "lat": "46.9500",
    "lng": "6.8333",
    "country": "Switzerland",
    "iso2": "CH",
    "admin_name": "Neuchâtel",
    "capital": "",
    "population": "6152",
    "population_proper": "6152"
  },
  {
    "city": "Uetikon am See",
    "lat": "47.2669",
    "lng": "8.6772",
    "country": "Switzerland",
    "iso2": "CH",
    "admin_name": "Zürich",
    "capital": "",
    "population": "6145",
    "population_proper": "6145"
  },
  {
    "city": "Moudon",
    "lat": "46.6687",
    "lng": "6.7974",
    "country": "Switzerland",
    "iso2": "CH",
    "admin_name": "Vaud",
    "capital": "",
    "population": "6135",
    "population_proper": "6135"
  },
  {
    "city": "Balsthal",
    "lat": "47.3164",
    "lng": "7.6944",
    "country": "Switzerland",
    "iso2": "CH",
    "admin_name": "Solothurn",
    "capital": "minor",
    "population": "6117",
    "population_proper": "6117"
  },
  {
    "city": "Buchrain",
    "lat": "47.0953",
    "lng": "8.3475",
    "country": "Switzerland",
    "iso2": "CH",
    "admin_name": "Luzern",
    "capital": "",
    "population": "6116",
    "population_proper": "6116"
  },
  {
    "city": "Biasca",
    "lat": "46.3500",
    "lng": "8.9667",
    "country": "Switzerland",
    "iso2": "CH",
    "admin_name": "Ticino",
    "capital": "",
    "population": "6115",
    "population_proper": "6115"
  },
  {
    "city": "Obererli",
    "lat": "47.1358",
    "lng": "8.6136",
    "country": "Switzerland",
    "iso2": "CH",
    "admin_name": "Schwyz",
    "capital": "",
    "population": "6080",
    "population_proper": "6080"
  },
  {
    "city": "Alpnach",
    "lat": "46.9499",
    "lng": "8.2309",
    "country": "Switzerland",
    "iso2": "CH",
    "admin_name": "Obwalden",
    "capital": "",
    "population": "6031",
    "population_proper": "6031"
  },
  {
    "city": "Bischofszell",
    "lat": "47.4997",
    "lng": "9.2333",
    "country": "Switzerland",
    "iso2": "CH",
    "admin_name": "Thurgau",
    "capital": "",
    "population": "6016",
    "population_proper": "6016"
  },
  {
    "city": "Glarus",
    "lat": "47.0333",
    "lng": "9.0667",
    "country": "Switzerland",
    "iso2": "CH",
    "admin_name": "Glarus",
    "capital": "admin",
    "population": "5996",
    "population_proper": "5996"
  },
  {
    "city": "Kirchberg",
    "lat": "47.0858",
    "lng": "7.5861",
    "country": "Switzerland",
    "iso2": "CH",
    "admin_name": "Bern",
    "capital": "",
    "population": "5965",
    "population_proper": "5965"
  },
  {
    "city": "Dielsdorf",
    "lat": "47.4836",
    "lng": "8.4542",
    "country": "Switzerland",
    "iso2": "CH",
    "admin_name": "Zürich",
    "capital": "",
    "population": "5940",
    "population_proper": "5940"
  },
  {
    "city": "Zell",
    "lat": "47.4489",
    "lng": "8.8233",
    "country": "Switzerland",
    "iso2": "CH",
    "admin_name": "Zürich",
    "capital": "",
    "population": "5929",
    "population_proper": "5929"
  },
  {
    "city": "Saxon",
    "lat": "46.1500",
    "lng": "7.1667",
    "country": "Switzerland",
    "iso2": "CH",
    "admin_name": "Valais",
    "capital": "",
    "population": "5897",
    "population_proper": "5897"
  },
  {
    "city": "Uetendorf",
    "lat": "46.7664",
    "lng": "7.5667",
    "country": "Switzerland",
    "iso2": "CH",
    "admin_name": "Bern",
    "capital": "",
    "population": "5892",
    "population_proper": "5892"
  },
  {
    "city": "Sankt Margrethen",
    "lat": "47.4497",
    "lng": "9.6331",
    "country": "Switzerland",
    "iso2": "CH",
    "admin_name": "Appenzell Ausserrhoden",
    "capital": "",
    "population": "5886",
    "population_proper": "5886"
  },
  {
    "city": "Rüschlikon",
    "lat": "47.3081",
    "lng": "8.5542",
    "country": "Switzerland",
    "iso2": "CH",
    "admin_name": "Zürich",
    "capital": "",
    "population": "5830",
    "population_proper": "5830"
  },
  {
    "city": "Peseux",
    "lat": "46.9955",
    "lng": "6.8895",
    "country": "Switzerland",
    "iso2": "CH",
    "admin_name": "Neuchâtel",
    "capital": "",
    "population": "5809",
    "population_proper": "5809"
  },
  {
    "city": "Hergiswil",
    "lat": "46.9844",
    "lng": "8.3125",
    "country": "Switzerland",
    "iso2": "CH",
    "admin_name": "Nidwalden",
    "capital": "",
    "population": "5777",
    "population_proper": "5777"
  },
  {
    "city": "Villeneuve",
    "lat": "46.4063",
    "lng": "6.9731",
    "country": "Switzerland",
    "iso2": "CH",
    "admin_name": "Vaud",
    "capital": "",
    "population": "5767",
    "population_proper": "5767"
  },
  {
    "city": "Unterseen",
    "lat": "46.6872",
    "lng": "7.8497",
    "country": "Switzerland",
    "iso2": "CH",
    "admin_name": "Bern",
    "capital": "",
    "population": "5750",
    "population_proper": "5750"
  },
  {
    "city": "Jegenstorf",
    "lat": "47.0497",
    "lng": "7.5069",
    "country": "Switzerland",
    "iso2": "CH",
    "admin_name": "Bern",
    "capital": "",
    "population": "5742",
    "population_proper": "5742"
  },
  {
    "city": "Echallens",
    "lat": "46.6333",
    "lng": "6.6333",
    "country": "Switzerland",
    "iso2": "CH",
    "admin_name": "Vaud",
    "capital": "minor",
    "population": "5740",
    "population_proper": "5740"
  },
  {
    "city": "Neftenbach",
    "lat": "47.5283",
    "lng": "8.6681",
    "country": "Switzerland",
    "iso2": "CH",
    "admin_name": "Zürich",
    "capital": "",
    "population": "5692",
    "population_proper": "5692"
  },
  {
    "city": "Saint-Prex",
    "lat": "46.4836",
    "lng": "6.4575",
    "country": "Switzerland",
    "iso2": "CH",
    "admin_name": "Vaud",
    "capital": "",
    "population": "5679",
    "population_proper": "5679"
  },
  {
    "city": "Walenstadt",
    "lat": "47.1234",
    "lng": "9.3150",
    "country": "Switzerland",
    "iso2": "CH",
    "admin_name": "Sankt Gallen",
    "capital": "",
    "population": "5679",
    "population_proper": "5679"
  },
  {
    "city": "Appenzell",
    "lat": "47.3306",
    "lng": "9.4086",
    "country": "Switzerland",
    "iso2": "CH",
    "admin_name": "Appenzell Innerrhoden",
    "capital": "admin",
    "population": "5649",
    "population_proper": "5649"
  },
  {
    "city": "Zermatt",
    "lat": "46.0193",
    "lng": "7.7461",
    "country": "Switzerland",
    "iso2": "CH",
    "admin_name": "Valais",
    "capital": "",
    "population": "5643",
    "population_proper": "5643"
  },
  {
    "city": "Mellingen",
    "lat": "47.4192",
    "lng": "8.2764",
    "country": "Switzerland",
    "iso2": "CH",
    "admin_name": "Aargau",
    "capital": "",
    "population": "5633",
    "population_proper": "5633"
  },
  {
    "city": "Lindau",
    "lat": "47.4431",
    "lng": "8.6719",
    "country": "Switzerland",
    "iso2": "CH",
    "admin_name": "Zürich",
    "capital": "",
    "population": "5621",
    "population_proper": "5621"
  },
  {
    "city": "Interlaken",
    "lat": "46.6881",
    "lng": "7.8646",
    "country": "Switzerland",
    "iso2": "CH",
    "admin_name": "Bern",
    "capital": "minor",
    "population": "5592",
    "population_proper": "5592"
  },
  {
    "city": "Sennwald",
    "lat": "47.2439",
    "lng": "9.4768",
    "country": "Switzerland",
    "iso2": "CH",
    "admin_name": "Sankt Gallen",
    "capital": "",
    "population": "5592",
    "population_proper": "5592"
  },
  {
    "city": "Nürensdorf",
    "lat": "47.4467",
    "lng": "8.6486",
    "country": "Switzerland",
    "iso2": "CH",
    "admin_name": "Zürich",
    "capital": "",
    "population": "5591",
    "population_proper": "5591"
  },
  {
    "city": "Kaiseraugst",
    "lat": "47.5414",
    "lng": "7.7278",
    "country": "Switzerland",
    "iso2": "CH",
    "admin_name": "Aargau",
    "capital": "",
    "population": "5576",
    "population_proper": "5576"
  },
  {
    "city": "Cologny",
    "lat": "46.2167",
    "lng": "6.1833",
    "country": "Switzerland",
    "iso2": "CH",
    "admin_name": "Genève",
    "capital": "",
    "population": "5570",
    "population_proper": "5570"
  },
  {
    "city": "Erlenbach",
    "lat": "47.3044",
    "lng": "8.5922",
    "country": "Switzerland",
    "iso2": "CH",
    "admin_name": "Zürich",
    "capital": "",
    "population": "5567",
    "population_proper": "5567"
  },
  {
    "city": "Frick",
    "lat": "47.5081",
    "lng": "8.0222",
    "country": "Switzerland",
    "iso2": "CH",
    "admin_name": "Aargau",
    "capital": "",
    "population": "5563",
    "population_proper": "5563"
  },
  {
    "city": "Laufen",
    "lat": "47.4167",
    "lng": "7.5000",
    "country": "Switzerland",
    "iso2": "CH",
    "admin_name": "Basel-Landschaft",
    "capital": "",
    "population": "5556",
    "population_proper": "5556"
  },
  {
    "city": "Colombier",
    "lat": "46.9667",
    "lng": "6.8667",
    "country": "Switzerland",
    "iso2": "CH",
    "admin_name": "Neuchâtel",
    "capital": "",
    "population": "5547",
    "population_proper": "5547"
  },
  {
    "city": "Fislisbach",
    "lat": "47.4386",
    "lng": "8.2944",
    "country": "Switzerland",
    "iso2": "CH",
    "admin_name": "Aargau",
    "capital": "",
    "population": "5544",
    "population_proper": "5544"
  },
  {
    "city": "Bonstetten",
    "lat": "47.3156",
    "lng": "8.4692",
    "country": "Switzerland",
    "iso2": "CH",
    "admin_name": "Zürich",
    "capital": "",
    "population": "5543",
    "population_proper": "5543"
  },
  {
    "city": "Ascona",
    "lat": "46.1500",
    "lng": "8.7667",
    "country": "Switzerland",
    "iso2": "CH",
    "admin_name": "Ticino",
    "capital": "",
    "population": "5534",
    "population_proper": "5534"
  },
  {
    "city": "Dagmersellen",
    "lat": "47.2131",
    "lng": "7.9894",
    "country": "Switzerland",
    "iso2": "CH",
    "admin_name": "Luzern",
    "capital": "",
    "population": "5503",
    "population_proper": "5503"
  },
  {
    "city": "Rupperswil",
    "lat": "47.4025",
    "lng": "8.1278",
    "country": "Switzerland",
    "iso2": "CH",
    "admin_name": "Aargau",
    "capital": "",
    "population": "5486",
    "population_proper": "5486"
  },
  {
    "city": "Thayngen",
    "lat": "47.7331",
    "lng": "8.6997",
    "country": "Switzerland",
    "iso2": "CH",
    "admin_name": "Schaffhausen",
    "capital": "",
    "population": "5453",
    "population_proper": "5453"
  },
  {
    "city": "Courtepin",
    "lat": "46.8667",
    "lng": "7.1167",
    "country": "Switzerland",
    "iso2": "CH",
    "admin_name": "Fribourg",
    "capital": "",
    "population": "5451",
    "population_proper": "5451"
  },
  {
    "city": "Schattdorf",
    "lat": "46.8494",
    "lng": "8.6713",
    "country": "Switzerland",
    "iso2": "CH",
    "admin_name": "Uri",
    "capital": "",
    "population": "5418",
    "population_proper": "5418"
  },
  {
    "city": "Gebenstorf",
    "lat": "47.4795",
    "lng": "8.2424",
    "country": "Switzerland",
    "iso2": "CH",
    "admin_name": "Aargau",
    "capital": "",
    "population": "5414",
    "population_proper": "5414"
  },
  {
    "city": "Adligenswil",
    "lat": "47.0706",
    "lng": "8.3650",
    "country": "Switzerland",
    "iso2": "CH",
    "admin_name": "Luzern",
    "capital": "",
    "population": "5391",
    "population_proper": "5391"
  },
  {
    "city": "Münchwilen",
    "lat": "47.4815",
    "lng": "8.9924",
    "country": "Switzerland",
    "iso2": "CH",
    "admin_name": "Thurgau",
    "capital": "minor",
    "population": "5377",
    "population_proper": "5377"
  },
  {
    "city": "Greifensee",
    "lat": "47.3661",
    "lng": "8.6786",
    "country": "Switzerland",
    "iso2": "CH",
    "admin_name": "Zürich",
    "capital": "",
    "population": "5345",
    "population_proper": "5345"
  },
  {
    "city": "Obfelden",
    "lat": "47.2639",
    "lng": "8.4242",
    "country": "Switzerland",
    "iso2": "CH",
    "admin_name": "Zürich",
    "capital": "",
    "population": "5340",
    "population_proper": "5340"
  },
  {
    "city": "Buochs",
    "lat": "46.9746",
    "lng": "8.4207",
    "country": "Switzerland",
    "iso2": "CH",
    "admin_name": "Nidwalden",
    "capital": "",
    "population": "5312",
    "population_proper": "5312"
  },
  {
    "city": "Vechigen",
    "lat": "46.9469",
    "lng": "7.5625",
    "country": "Switzerland",
    "iso2": "CH",
    "admin_name": "Bern",
    "capital": "",
    "population": "5298",
    "population_proper": "5298"
  },
  {
    "city": "Seon",
    "lat": "47.3458",
    "lng": "8.1597",
    "country": "Switzerland",
    "iso2": "CH",
    "admin_name": "Aargau",
    "capital": "",
    "population": "5288",
    "population_proper": "5288"
  },
  {
    "city": "Préverenges",
    "lat": "46.5167",
    "lng": "6.5333",
    "country": "Switzerland",
    "iso2": "CH",
    "admin_name": "Vaud",
    "capital": "",
    "population": "5287",
    "population_proper": "5287"
  },
  {
    "city": "Konolfingen Dorf",
    "lat": "46.8833",
    "lng": "7.6167",
    "country": "Switzerland",
    "iso2": "CH",
    "admin_name": "Bern",
    "capital": "",
    "population": "5282",
    "population_proper": "5282"
  },
  {
    "city": "Romont",
    "lat": "46.7001",
    "lng": "6.9181",
    "country": "Switzerland",
    "iso2": "CH",
    "admin_name": "Fribourg",
    "capital": "",
    "population": "5276",
    "population_proper": "5276"
  },
  {
    "city": "Feusisberg",
    "lat": "47.1869",
    "lng": "8.7472",
    "country": "Switzerland",
    "iso2": "CH",
    "admin_name": "Schwyz",
    "capital": "",
    "population": "5262",
    "population_proper": "5262"
  },
  {
    "city": "Lengnau",
    "lat": "47.1817",
    "lng": "7.3667",
    "country": "Switzerland",
    "iso2": "CH",
    "admin_name": "Bern",
    "capital": "",
    "population": "5254",
    "population_proper": "5254"
  },
  {
    "city": "Bellach",
    "lat": "47.2150",
    "lng": "7.5000",
    "country": "Switzerland",
    "iso2": "CH",
    "admin_name": "Solothurn",
    "capital": "",
    "population": "5214",
    "population_proper": "5214"
  },
  {
    "city": "Lausen",
    "lat": "47.4725",
    "lng": "7.7597",
    "country": "Switzerland",
    "iso2": "CH",
    "admin_name": "Basel-Landschaft",
    "capital": "",
    "population": "5209",
    "population_proper": "5209"
  },
  {
    "city": "Gerlafingen",
    "lat": "47.1722",
    "lng": "7.5739",
    "country": "Switzerland",
    "iso2": "CH",
    "admin_name": "Solothurn",
    "capital": "",
    "population": "5202",
    "population_proper": "5202"
  },
  {
    "city": "Hitzkirch",
    "lat": "47.2250",
    "lng": "8.2622",
    "country": "Switzerland",
    "iso2": "CH",
    "admin_name": "Luzern",
    "capital": "",
    "population": "5201",
    "population_proper": "5201"
  },
  {
    "city": "Glattfelden",
    "lat": "47.5608",
    "lng": "8.4994",
    "country": "Switzerland",
    "iso2": "CH",
    "admin_name": "Zürich",
    "capital": "",
    "population": "5189",
    "population_proper": "5189"
  },
  {
    "city": "Saint Légier-La Chiésaz",
    "lat": "46.4667",
    "lng": "6.8833",
    "country": "Switzerland",
    "iso2": "CH",
    "admin_name": "Vaud",
    "capital": "",
    "population": "5184",
    "population_proper": "5184"
  },
  {
    "city": "Eglisau",
    "lat": "47.5733",
    "lng": "8.5261",
    "country": "Switzerland",
    "iso2": "CH",
    "admin_name": "Zürich",
    "capital": "",
    "population": "5170",
    "population_proper": "5170"
  },
  {
    "city": "Gommiswald",
    "lat": "47.2404",
    "lng": "9.0474",
    "country": "Switzerland",
    "iso2": "CH",
    "admin_name": "Sankt Gallen",
    "capital": "",
    "population": "5164",
    "population_proper": "5164"
  },
  {
    "city": "Ettingen",
    "lat": "47.4809",
    "lng": "7.5444",
    "country": "Switzerland",
    "iso2": "CH",
    "admin_name": "Basel-Landschaft",
    "capital": "",
    "population": "5156",
    "population_proper": "5156"
  },
  {
    "city": "Sachseln",
    "lat": "46.8678",
    "lng": "8.2386",
    "country": "Switzerland",
    "iso2": "CH",
    "admin_name": "Obwalden",
    "capital": "",
    "population": "5146",
    "population_proper": "5146"
  },
  {
    "city": "Hägendorf",
    "lat": "47.3344",
    "lng": "7.8444",
    "country": "Switzerland",
    "iso2": "CH",
    "admin_name": "Solothurn",
    "capital": "",
    "population": "5137",
    "population_proper": "5137"
  },
  {
    "city": "Zumikon",
    "lat": "47.3328",
    "lng": "8.6239",
    "country": "Switzerland",
    "iso2": "CH",
    "admin_name": "Zürich",
    "capital": "",
    "population": "5120",
    "population_proper": "5120"
  },
  {
    "city": "Fraubrunnen",
    "lat": "47.0850",
    "lng": "7.5269",
    "country": "Switzerland",
    "iso2": "CH",
    "admin_name": "Bern",
    "capital": "",
    "population": "5106",
    "population_proper": "5106"
  },
  {
    "city": "Sevelen",
    "lat": "47.1204",
    "lng": "9.4857",
    "country": "Switzerland",
    "iso2": "CH",
    "admin_name": "Sankt Gallen",
    "capital": "",
    "population": "5103",
    "population_proper": "5103"
  },
  {
    "city": "Schwerzenbach",
    "lat": "47.3818",
    "lng": "8.6559",
    "country": "Switzerland",
    "iso2": "CH",
    "admin_name": "Zürich",
    "capital": "",
    "population": "5088",
    "population_proper": "5088"
  },
  {
    "city": "Oberrieden",
    "lat": "47.2778",
    "lng": "8.5781",
    "country": "Switzerland",
    "iso2": "CH",
    "admin_name": "Zürich",
    "capital": "",
    "population": "5083",
    "population_proper": "5083"
  },
  {
    "city": "Wangen bei Olten",
    "lat": "47.3442",
    "lng": "7.8694",
    "country": "Switzerland",
    "iso2": "CH",
    "admin_name": "Solothurn",
    "capital": "",
    "population": "5056",
    "population_proper": "5056"
  },
  {
    "city": "Wangen",
    "lat": "47.1908",
    "lng": "8.8956",
    "country": "Switzerland",
    "iso2": "CH",
    "admin_name": "Schwyz",
    "capital": "",
    "population": "5053",
    "population_proper": "5053"
  },
  {
    "city": "Dulliken",
    "lat": "47.3525",
    "lng": "7.9458",
    "country": "Switzerland",
    "iso2": "CH",
    "admin_name": "Solothurn",
    "capital": "",
    "population": "5048",
    "population_proper": "5048"
  },
  {
    "city": "Sumiswald",
    "lat": "47.0275",
    "lng": "7.7453",
    "country": "Switzerland",
    "iso2": "CH",
    "admin_name": "Bern",
    "capital": "",
    "population": "5046",
    "population_proper": "5046"
  },
  {
    "city": "Root",
    "lat": "47.1158",
    "lng": "8.3914",
    "country": "Switzerland",
    "iso2": "CH",
    "admin_name": "Luzern",
    "capital": "",
    "population": "5040",
    "population_proper": "5040"
  },
  {
    "city": "Ebnat-Kappel",
    "lat": "47.2632",
    "lng": "9.1234",
    "country": "Switzerland",
    "iso2": "CH",
    "admin_name": "Sankt Gallen",
    "capital": "",
    "population": "5031",
    "population_proper": "5031"
  },
  {
    "city": "Bäretswil",
    "lat": "47.3369",
    "lng": "8.8575",
    "country": "Switzerland",
    "iso2": "CH",
    "admin_name": "Zürich",
    "capital": "",
    "population": "5026",
    "population_proper": "5026"
  },
  {
    "city": "Chavornay",
    "lat": "46.7065",
    "lng": "6.5690",
    "country": "Switzerland",
    "iso2": "CH",
    "admin_name": "Vaud",
    "capital": "",
    "population": "5000",
    "population_proper": "5000"
  },
  {
    "city": "Saint Moritz",
    "lat": "46.4972",
    "lng": "9.8378",
    "country": "Switzerland",
    "iso2": "CH",
    "admin_name": "Graubünden",
    "capital": "",
    "population": "4994",
    "population_proper": "4994"
  },
  {
    "city": "Bauma",
    "lat": "47.3681",
    "lng": "8.8778",
    "country": "Switzerland",
    "iso2": "CH",
    "admin_name": "Zürich",
    "capital": "",
    "population": "4925",
    "population_proper": "4925"
  },
  {
    "city": "Geroldswil",
    "lat": "47.4228",
    "lng": "8.4108",
    "country": "Switzerland",
    "iso2": "CH",
    "admin_name": "Zürich",
    "capital": "",
    "population": "4918",
    "population_proper": "4918"
  },
  {
    "city": "Niederglatt",
    "lat": "47.4922",
    "lng": "8.5033",
    "country": "Switzerland",
    "iso2": "CH",
    "admin_name": "Zürich",
    "capital": "",
    "population": "4917",
    "population_proper": "4917"
  },
  {
    "city": "Schönenwerd",
    "lat": "47.3719",
    "lng": "8.0028",
    "country": "Switzerland",
    "iso2": "CH",
    "admin_name": "Solothurn",
    "capital": "",
    "population": "4910",
    "population_proper": "4910"
  },
  {
    "city": "Bettlach",
    "lat": "47.2039",
    "lng": "7.4250",
    "country": "Switzerland",
    "iso2": "CH",
    "admin_name": "Solothurn",
    "capital": "",
    "population": "4910",
    "population_proper": "4910"
  },
  {
    "city": "Elgg",
    "lat": "47.4914",
    "lng": "8.8645",
    "country": "Switzerland",
    "iso2": "CH",
    "admin_name": "Zürich",
    "capital": "",
    "population": "4903",
    "population_proper": "4903"
  },
  {
    "city": "Strengelbach",
    "lat": "47.2817",
    "lng": "7.9292",
    "country": "Switzerland",
    "iso2": "CH",
    "admin_name": "Aargau",
    "capital": "",
    "population": "4893",
    "population_proper": "4893"
  },
  {
    "city": "Mettmenstetten",
    "lat": "47.2447",
    "lng": "8.4644",
    "country": "Switzerland",
    "iso2": "CH",
    "admin_name": "Zürich",
    "capital": "",
    "population": "4865",
    "population_proper": "4865"
  },
  {
    "city": "Sainte-Croix",
    "lat": "46.8237",
    "lng": "6.4889",
    "country": "Switzerland",
    "iso2": "CH",
    "admin_name": "Vaud",
    "capital": "",
    "population": "4863",
    "population_proper": "4863"
  },
  {
    "city": "Flums",
    "lat": "47.0928",
    "lng": "9.3439",
    "country": "Switzerland",
    "iso2": "CH",
    "admin_name": "Sankt Gallen",
    "capital": "",
    "population": "4856",
    "population_proper": "4856"
  },
  {
    "city": "Kaltbrunn",
    "lat": "47.2164",
    "lng": "9.0333",
    "country": "Switzerland",
    "iso2": "CH",
    "admin_name": "Sankt Gallen",
    "capital": "",
    "population": "4839",
    "population_proper": "4839"
  },
  {
    "city": "Huttwil",
    "lat": "47.1164",
    "lng": "7.8500",
    "country": "Switzerland",
    "iso2": "CH",
    "admin_name": "Bern",
    "capital": "",
    "population": "4836",
    "population_proper": "4836"
  },
  {
    "city": "Sigriswil",
    "lat": "46.7164",
    "lng": "7.7167",
    "country": "Switzerland",
    "iso2": "CH",
    "admin_name": "Bern",
    "capital": "",
    "population": "4832",
    "population_proper": "4832"
  },
  {
    "city": "Ehrendingen",
    "lat": "47.4995",
    "lng": "8.3443",
    "country": "Switzerland",
    "iso2": "CH",
    "admin_name": "Aargau",
    "capital": "",
    "population": "4823",
    "population_proper": "4823"
  },
  {
    "city": "Ennetbürgen",
    "lat": "46.9844",
    "lng": "8.4139",
    "country": "Switzerland",
    "iso2": "CH",
    "admin_name": "Nidwalden",
    "capital": "",
    "population": "4801",
    "population_proper": "4801"
  },
  {
    "city": "Balgach",
    "lat": "47.4000",
    "lng": "9.5997",
    "country": "Switzerland",
    "iso2": "CH",
    "admin_name": "Sankt Gallen",
    "capital": "",
    "population": "4797",
    "population_proper": "4797"
  },
  {
    "city": "Zuzwil",
    "lat": "47.4713",
    "lng": "9.1022",
    "country": "Switzerland",
    "iso2": "CH",
    "admin_name": "Sankt Gallen",
    "capital": "",
    "population": "4785",
    "population_proper": "4785"
  },
  {
    "city": "Niederlenz",
    "lat": "47.4025",
    "lng": "8.1764",
    "country": "Switzerland",
    "iso2": "CH",
    "admin_name": "Aargau",
    "capital": "",
    "population": "4776",
    "population_proper": "4776"
  },
  {
    "city": "Berikon",
    "lat": "47.3525",
    "lng": "8.3736",
    "country": "Switzerland",
    "iso2": "CH",
    "admin_name": "Aargau",
    "capital": "",
    "population": "4776",
    "population_proper": "4776"
  },
  {
    "city": "Weiningen",
    "lat": "47.4208",
    "lng": "8.4356",
    "country": "Switzerland",
    "iso2": "CH",
    "admin_name": "Zürich",
    "capital": "",
    "population": "4760",
    "population_proper": "4760"
  },
  {
    "city": "Oetwil am See",
    "lat": "47.2708",
    "lng": "8.7211",
    "country": "Switzerland",
    "iso2": "CH",
    "admin_name": "Zürich",
    "capital": "",
    "population": "4754",
    "population_proper": "4754"
  },
  {
    "city": "Turbenthal",
    "lat": "47.4383",
    "lng": "8.8442",
    "country": "Switzerland",
    "iso2": "CH",
    "admin_name": "Zürich",
    "capital": "",
    "population": "4748",
    "population_proper": "4748"
  },
  {
    "city": "Cortaillod",
    "lat": "46.9440",
    "lng": "6.8479",
    "country": "Switzerland",
    "iso2": "CH",
    "admin_name": "Neuchâtel",
    "capital": "",
    "population": "4729",
    "population_proper": "4729"
  },
  {
    "city": "Wängi",
    "lat": "47.5000",
    "lng": "8.9497",
    "country": "Switzerland",
    "iso2": "CH",
    "admin_name": "Thurgau",
    "capital": "",
    "population": "4720",
    "population_proper": "4720"
  },
  {
    "city": "Niederbipp",
    "lat": "47.2658",
    "lng": "7.6958",
    "country": "Switzerland",
    "iso2": "CH",
    "admin_name": "Bern",
    "capital": "",
    "population": "4715",
    "population_proper": "4715"
  },
  {
    "city": "Egnach",
    "lat": "47.5497",
    "lng": "9.3833",
    "country": "Switzerland",
    "iso2": "CH",
    "admin_name": "Thurgau",
    "capital": "",
    "population": "4711",
    "population_proper": "4711"
  },
  {
    "city": "Oberkirch",
    "lat": "47.1564",
    "lng": "8.1158",
    "country": "Switzerland",
    "iso2": "CH",
    "admin_name": "Luzern",
    "capital": "",
    "population": "4707",
    "population_proper": "4707"
  },
  {
    "city": "Würenlingen",
    "lat": "47.5322",
    "lng": "8.2566",
    "country": "Switzerland",
    "iso2": "CH",
    "admin_name": "Aargau",
    "capital": "",
    "population": "4701",
    "population_proper": "4701"
  },
  {
    "city": "Gordola",
    "lat": "46.1884",
    "lng": "8.8638",
    "country": "Switzerland",
    "iso2": "CH",
    "admin_name": "Ticino",
    "capital": "",
    "population": "4697",
    "population_proper": "4697"
  },
  {
    "city": "Troistorrents",
    "lat": "46.2333",
    "lng": "6.9167",
    "country": "Switzerland",
    "iso2": "CH",
    "admin_name": "Valais",
    "capital": "",
    "population": "4683",
    "population_proper": "4683"
  },
  {
    "city": "Saint-Sulpice",
    "lat": "46.5167",
    "lng": "6.5667",
    "country": "Switzerland",
    "iso2": "CH",
    "admin_name": "Vaud",
    "capital": "",
    "population": "4668",
    "population_proper": "4668"
  },
  {
    "city": "Triengen",
    "lat": "47.2358",
    "lng": "8.0758",
    "country": "Switzerland",
    "iso2": "CH",
    "admin_name": "Luzern",
    "capital": "",
    "population": "4652",
    "population_proper": "4652"
  },
  {
    "city": "Le Landeron",
    "lat": "47.0554",
    "lng": "7.0691",
    "country": "Switzerland",
    "iso2": "CH",
    "admin_name": "Neuchâtel",
    "capital": "",
    "population": "4645",
    "population_proper": "4645"
  },
  {
    "city": "Beringen",
    "lat": "47.6964",
    "lng": "8.5754",
    "country": "Switzerland",
    "iso2": "CH",
    "admin_name": "Schaffhausen",
    "capital": "",
    "population": "4643",
    "population_proper": "4643"
  },
  {
    "city": "Tägerwilen",
    "lat": "47.6556",
    "lng": "9.1311",
    "country": "Switzerland",
    "iso2": "CH",
    "admin_name": "Thurgau",
    "capital": "",
    "population": "4642",
    "population_proper": "4642"
  },
  {
    "city": "Aarberg",
    "lat": "47.0458",
    "lng": "7.2764",
    "country": "Switzerland",
    "iso2": "CH",
    "admin_name": "Bern",
    "capital": "minor",
    "population": "4629",
    "population_proper": "4629"
  },
  {
    "city": "Confignon",
    "lat": "46.1834",
    "lng": "6.0833",
    "country": "Switzerland",
    "iso2": "CH",
    "admin_name": "Genève",
    "capital": "",
    "population": "4627",
    "population_proper": "4627"
  },
  {
    "city": "Meiringen",
    "lat": "46.7283",
    "lng": "8.1861",
    "country": "Switzerland",
    "iso2": "CH",
    "admin_name": "Bern",
    "capital": "",
    "population": "4621",
    "population_proper": "4621"
  },
  {
    "city": "Stabio",
    "lat": "45.8500",
    "lng": "8.9333",
    "country": "Switzerland",
    "iso2": "CH",
    "admin_name": "Ticino",
    "capital": "",
    "population": "4591",
    "population_proper": "4591"
  },
  {
    "city": "Scuol",
    "lat": "46.7970",
    "lng": "10.2995",
    "country": "Switzerland",
    "iso2": "CH",
    "admin_name": "Graubünden",
    "capital": "",
    "population": "4591",
    "population_proper": "4591"
  },
  {
    "city": "Le Chenit",
    "lat": "46.6000",
    "lng": "6.2333",
    "country": "Switzerland",
    "iso2": "CH",
    "admin_name": "Vaud",
    "capital": "",
    "population": "4586",
    "population_proper": "4586"
  },
  {
    "city": "Stansstad",
    "lat": "46.9803",
    "lng": "8.3389",
    "country": "Switzerland",
    "iso2": "CH",
    "admin_name": "Nidwalden",
    "capital": "",
    "population": "4576",
    "population_proper": "4576"
  },
  {
    "city": "Morbio Inferiore",
    "lat": "45.8500",
    "lng": "9.0167",
    "country": "Switzerland",
    "iso2": "CH",
    "admin_name": "Ticino",
    "capital": "",
    "population": "4575",
    "population_proper": "4575"
  },
  {
    "city": "Saint-Maurice",
    "lat": "46.2190",
    "lng": "7.0047",
    "country": "Switzerland",
    "iso2": "CH",
    "admin_name": "Valais",
    "capital": "minor",
    "population": "4571",
    "population_proper": "4571"
  },
  {
    "city": "Tramelan",
    "lat": "47.2233",
    "lng": "7.1014",
    "country": "Switzerland",
    "iso2": "CH",
    "admin_name": "Bern",
    "capital": "",
    "population": "4564",
    "population_proper": "4564"
  },
  {
    "city": "Menzingen",
    "lat": "47.1803",
    "lng": "8.5917",
    "country": "Switzerland",
    "iso2": "CH",
    "admin_name": "Zug",
    "capital": "",
    "population": "4540",
    "population_proper": "4540"
  },
  {
    "city": "Monte Ceneri",
    "lat": "46.1250",
    "lng": "8.9200",
    "country": "Switzerland",
    "iso2": "CH",
    "admin_name": "Ticino",
    "capital": "",
    "population": "4521",
    "population_proper": "4521"
  },
  {
    "city": "Bronschhofen",
    "lat": "47.4831",
    "lng": "9.0331",
    "country": "Switzerland",
    "iso2": "CH",
    "admin_name": "Sankt Gallen",
    "capital": "",
    "population": "4515",
    "population_proper": "4515"
  },
  {
    "city": "Aarwangen",
    "lat": "47.2414",
    "lng": "7.7708",
    "country": "Switzerland",
    "iso2": "CH",
    "admin_name": "Bern",
    "capital": "",
    "population": "4514",
    "population_proper": "4514"
  },
  {
    "city": "Winkel",
    "lat": "47.4922",
    "lng": "8.5539",
    "country": "Switzerland",
    "iso2": "CH",
    "admin_name": "Zürich",
    "capital": "",
    "population": "4511",
    "population_proper": "4511"
  },
  {
    "city": "Füllinsdorf",
    "lat": "47.5056",
    "lng": "7.7297",
    "country": "Switzerland",
    "iso2": "CH",
    "admin_name": "Basel-Landschaft",
    "capital": "",
    "population": "4484",
    "population_proper": "4484"
  },
  {
    "city": "Zufikon",
    "lat": "47.3459",
    "lng": "8.3595",
    "country": "Switzerland",
    "iso2": "CH",
    "admin_name": "Aargau",
    "capital": "",
    "population": "4479",
    "population_proper": "4479"
  },
  {
    "city": "Kölliken",
    "lat": "47.3375",
    "lng": "8.0236",
    "country": "Switzerland",
    "iso2": "CH",
    "admin_name": "Aargau",
    "capital": "",
    "population": "4476",
    "population_proper": "4476"
  },
  {
    "city": "Rafz",
    "lat": "47.6122",
    "lng": "8.5408",
    "country": "Switzerland",
    "iso2": "CH",
    "admin_name": "Zürich",
    "capital": "",
    "population": "4462",
    "population_proper": "4462"
  },
  {
    "city": "Oberbüren",
    "lat": "47.4500",
    "lng": "9.1664",
    "country": "Switzerland",
    "iso2": "CH",
    "admin_name": "Sankt Gallen",
    "capital": "",
    "population": "4447",
    "population_proper": "4447"
  },
  {
    "city": "Agno",
    "lat": "46.0002",
    "lng": "8.9001",
    "country": "Switzerland",
    "iso2": "CH",
    "admin_name": "Ticino",
    "capital": "",
    "population": "4445",
    "population_proper": "4445"
  },
  {
    "city": "Klosters Platz",
    "lat": "46.8548",
    "lng": "9.9538",
    "country": "Switzerland",
    "iso2": "CH",
    "admin_name": "Graubünden",
    "capital": "",
    "population": "4437",
    "population_proper": "4437"
  },
  {
    "city": "Schötz",
    "lat": "47.1711",
    "lng": "7.9894",
    "country": "Switzerland",
    "iso2": "CH",
    "admin_name": "Luzern",
    "capital": "",
    "population": "4434",
    "population_proper": "4434"
  },
  {
    "city": "Schöftland",
    "lat": "47.3053",
    "lng": "8.0528",
    "country": "Switzerland",
    "iso2": "CH",
    "admin_name": "Aargau",
    "capital": "",
    "population": "4393",
    "population_proper": "4393"
  },
  {
    "city": "Bubendorf",
    "lat": "47.4497",
    "lng": "7.7364",
    "country": "Switzerland",
    "iso2": "CH",
    "admin_name": "Basel-Landschaft",
    "capital": "",
    "population": "4389",
    "population_proper": "4389"
  },
  {
    "city": "Brügg",
    "lat": "47.1264",
    "lng": "7.2817",
    "country": "Switzerland",
    "iso2": "CH",
    "admin_name": "Bern",
    "capital": "",
    "population": "4388",
    "population_proper": "4388"
  },
  {
    "city": "Rebstein",
    "lat": "47.3997",
    "lng": "9.5833",
    "country": "Switzerland",
    "iso2": "CH",
    "admin_name": "Sankt Gallen",
    "capital": "",
    "population": "4387",
    "population_proper": "4387"
  },
  {
    "city": "Speicher",
    "lat": "47.4106",
    "lng": "9.4433",
    "country": "Switzerland",
    "iso2": "CH",
    "admin_name": "Appenzell Ausserrhoden",
    "capital": "",
    "population": "4379",
    "population_proper": "4379"
  },
  {
    "city": "Eschlikon",
    "lat": "47.4610",
    "lng": "8.9590",
    "country": "Switzerland",
    "iso2": "CH",
    "admin_name": "Thurgau",
    "capital": "",
    "population": "4372",
    "population_proper": "4372"
  },
  {
    "city": "Weggis",
    "lat": "47.0322",
    "lng": "8.4383",
    "country": "Switzerland",
    "iso2": "CH",
    "admin_name": "Luzern",
    "capital": "",
    "population": "4368",
    "population_proper": "4368"
  },
  {
    "city": "Gachnang",
    "lat": "47.5331",
    "lng": "8.8500",
    "country": "Switzerland",
    "iso2": "CH",
    "admin_name": "Thurgau",
    "capital": "",
    "population": "4364",
    "population_proper": "4364"
  },
  {
    "city": "Caslano",
    "lat": "45.9699",
    "lng": "8.8795",
    "country": "Switzerland",
    "iso2": "CH",
    "admin_name": "Ticino",
    "capital": "",
    "population": "4356",
    "population_proper": "4356"
  },
  {
    "city": "Russikon",
    "lat": "47.3953",
    "lng": "8.7778",
    "country": "Switzerland",
    "iso2": "CH",
    "admin_name": "Zürich",
    "capital": "",
    "population": "4355",
    "population_proper": "4355"
  },
  {
    "city": "Birr",
    "lat": "47.4358",
    "lng": "8.2028",
    "country": "Switzerland",
    "iso2": "CH",
    "admin_name": "Aargau",
    "capital": "",
    "population": "4354",
    "population_proper": "4354"
  },
  {
    "city": "Cheseaux-sur-Lausanne",
    "lat": "46.5833",
    "lng": "6.6000",
    "country": "Switzerland",
    "iso2": "CH",
    "admin_name": "Vaud",
    "capital": "",
    "population": "4342",
    "population_proper": "4342"
  },
  {
    "city": "Wolhusen",
    "lat": "47.0617",
    "lng": "8.0744",
    "country": "Switzerland",
    "iso2": "CH",
    "admin_name": "Luzern",
    "capital": "",
    "population": "4340",
    "population_proper": "4340"
  },
  {
    "city": "Utzenstorf",
    "lat": "47.1269",
    "lng": "7.5572",
    "country": "Switzerland",
    "iso2": "CH",
    "admin_name": "Bern",
    "capital": "",
    "population": "4331",
    "population_proper": "4331"
  },
  {
    "city": "Kehrsatz",
    "lat": "46.9094",
    "lng": "7.4708",
    "country": "Switzerland",
    "iso2": "CH",
    "admin_name": "Bern",
    "capital": "",
    "population": "4302",
    "population_proper": "4302"
  },
  {
    "city": "Wichtrach",
    "lat": "46.8428",
    "lng": "7.5764",
    "country": "Switzerland",
    "iso2": "CH",
    "admin_name": "Bern",
    "capital": "",
    "population": "4294",
    "population_proper": "4294"
  },
  {
    "city": "Avenches",
    "lat": "46.8800",
    "lng": "7.0398",
    "country": "Switzerland",
    "iso2": "CH",
    "admin_name": "Vaud",
    "capital": "",
    "population": "4292",
    "population_proper": "4292"
  },
  {
    "city": "Sins",
    "lat": "47.1914",
    "lng": "8.3969",
    "country": "Switzerland",
    "iso2": "CH",
    "admin_name": "Aargau",
    "capital": "",
    "population": "4259",
    "population_proper": "4259"
  },
  {
    "city": "Bad Zurzach",
    "lat": "47.5872",
    "lng": "8.2944",
    "country": "Switzerland",
    "iso2": "CH",
    "admin_name": "Aargau",
    "capital": "minor",
    "population": "4242",
    "population_proper": "4242"
  },
  {
    "city": "Uitikon",
    "lat": "47.3719",
    "lng": "8.4531",
    "country": "Switzerland",
    "iso2": "CH",
    "admin_name": "Zürich",
    "capital": "",
    "population": "4239",
    "population_proper": "4239"
  },